timestamp,latitude,longitude,altitude,pitch,roll,yaw
0,0.0,0.0,0.0,0.5530156215314895,-0.1606949594260605,-1.93849854817037
0,0.0,0.0,-17.0,0.5530049746831052,-0.16069160323335055,-1.938486952950179
0,0.0,0.0,-17.0,0.553023676759328,-0.1607033608274024,-1.9383965228944606
0,0.0,0.0,-17.0,0.5529728244274301,-0.16073713630677625,-1.938393678211992
0,0.0,0.0,-17.0,0.5529981103047974,-0.16075883741067723,-1.9383254223799982
0,0.0,0.0,-17.0,0.5529898450715501,-0.1607501079138138,-1.9382678852808308
0,0.0,0.0,-17.0,0.5529717737762451,-0.1607442297358661,-1.9382620233314056
0,0.0,0.0,-17.0,0.5529922265751106,-0.16075170795109078,-1.9382303501345886
0,0.0,0.0,-17.0,0.5530002116420067,-0.16074532399396857,-1.9381891797330328
0,0.0,0.0,-17.0,0.5530364951609906,-0.16075112413855883,-1.9381098970774604
0,0.0,0.0,-17.0,0.5530125395418669,-0.16075129576390043,-1.9380645389028779
0,0.0,0.0,-17.0,0.553016181893869,-0.16076413141000248,-1.9380180463655794
0,0.0,0.0,-17.0,0.5530302610622673,-0.1607785481445382,-1.9379931079599844
0,0.0,0.0,-17.0,0.5530198942995288,-0.16077985146851995,-1.9379646538889606
0,0.0,0.0,-17.0,0.5530292804197079,-0.16078998890913004,-1.9379654635270402
0,0.0,0.0,-17.0,0.5530269689074525,-0.16078988562424282,-1.9379054626218457
0,0.0,0.0,-17.0,0.5530477025898145,-0.16080551706435323,-1.937893945238925
0,0.0,0.0,-17.0,0.5530344638228166,-0.1608253247525328,-1.937896968298715
0,0.0,0.0,-17.0,0.5530404877986181,-0.16079244040873883,-1.9378691373800672
0,0.0,0.0,-17.0,0.5530429394230904,-0.1607779297157823,-1.9378553526117606
0,0.0,0.0,-17.0,0.5530812552934027,-0.1607674420105846,-1.937831647488583
0,0.0,0.0,-17.0,0.5531182411247945,-0.16077156520990574,-1.937837553679089
0,0.0,0.0,-17.0,0.5529367524599207,-0.1607440311278271,-1.9379128936290069
0,0.0,0.0,-17.0,0.5531019896706203,-0.16086487220211637,-1.9377958224459986
0,0.0,0.0,-17.0,0.5529738750792965,-0.16063208040531254,-1.9380227671720125
0,0.0,0.0,-17.0,0.5530693471562044,-0.16077191066482563,-1.9378761813716152
0,0.0,0.0,-17.0,0.5528728054891987,-0.1607782532473025,-1.9379446911868294
0,0.0,0.0,-17.0,0.5531722503616323,-0.16068205615670206,-1.938048896578569
0,0.0,0.0,-17.0,0.5528157946550106,-0.16077822560884494,-1.938114247625288
0,0.0,0.0,-17.0,0.5531115163653597,-0.1607921571844013,-1.9380540033221862
0,0.0,0.0,-17.0,0.5529242150126744,-0.16078898463935717,-1.9381299869792616
0,0.0,0.0,-17.0,0.553110185426698,-0.16081098686245685,-1.938251517008292
0,0.0,0.0,-17.0,0.5529478191140733,-0.1609695597707395,-1.9381245934441613
0,0.0,0.0,-17.0,0.553210639344906,-0.16078135236569924,-1.938178731633323
0,0.0,0.0,-17.0,0.5530429394230904,-0.1608382025439658,-1.9382640730297334
0,0.0,0.0,-17.0,0.5530260583126211,-0.1609007337043939,-1.9381456774456791
0,0.0,0.0,-17.0,0.553041048169599,-0.16075401971023853,-1.9382417436768444
0,0.0,0.0,-17.0,0.5529850120309677,-0.16086860730602323,-1.9382828050350265
0,0.0,0.0,-17.0,0.5529904754692108,-0.16102850605247493,-1.938120916370637
0,0.0,0.0,-17.0,0.5531864709920224,-0.16076723486814726,-1.9382830853275008
0,0.0,0.0,-17.0,0.5531370846098592,-0.16077404807284407,-1.938325372478029
0,0.0,0.0,-17.0,0.5531269273137214,-0.16083013356366135,-1.9383054945309992
0,0.0,0.0,-17.0,0.5531454206453157,-0.16077799842363533,-1.9382643682092173
0,0.0,0.0,-17.0,0.5531433191197271,-0.16088355491736017,-1.9382172427126745
0,0.0,0.0,-17.0,0.5530805548123207,-0.16089373041439464,-1.9382777188615683
0,0.0,0.0,-17.0,0.5531036007988821,-0.1609239513503291,-1.9383479363715115
0,0.0,0.0,-17.0,0.5531318308280417,-0.1609361772953065,-1.938273845966452
0,0.0,0.0,-17.0,0.5531634938779441,-0.1609578381501074,-1.9381768042263234
0,0.0,0.0,-17.0,0.5531244755621282,-0.16098100602145113,-1.9383179515736846
0,0.0,0.0,-17.0,0.5531509546757437,-0.1609617775980672,-1.9383004950997722
0,0.0,0.0,-17.0,0.5531687477624756,-0.16098363309154687,-1.9381762114827514
0,0.0,0.0,-17.0,0.5531937564865088,-0.16095787497055944,-1.9381519673841705
0,0.0,0.0,-17.0,0.5531273476143671,-0.16096992001667723,-1.9382182058735336
0,0.0,0.0,-17.0,0.5530993978589531,-0.16098859931362036,-1.938144905781169
0,0.0,0.0,-17.0,0.5531347729437599,-0.16094565592449808,-1.9380008344913546
0,0.0,0.0,-17.0,0.5531115163653597,-0.16093928763387705,-1.937954403954507
0,0.0,0.0,-17.0,0.5530903615750352,-0.16096225931954733,-1.9379586135946831
0,0.0,0.0,-17.0,0.5530692070609936,-0.1609651701123851,-1.9379576682694546
0,0.0,0.0,-17.0,0.5531812170499933,-0.16095568171688598,-1.9378421806550958
0,0.0,0.0,-17.0,0.5531421282564375,-0.1609860912044282,-1.9377680159247197
0,0.0,0.0,-17.0,0.5531177507768087,-0.16099429010323743,-1.9377762619878647
0,0.0,0.0,-17.0,0.5530871393464513,-0.1610043986908601,-1.9377041571823268
0,0.0,0.0,-17.0,0.5531986602031758,-0.16097108926744377,-1.9376205079704636
0,0.0,0.0,-17.0,0.5531503942667386,-0.16098169352403205,-1.937545821983144
0,0.0,0.0,-17.0,0.553111096068822,-0.1609628220414585,-1.9375684841872596
0,0.0,0.0,-17.0,0.5530898011869949,-0.16097025860984424,-1.9374906878810079
0,0.0,0.0,-17.0,0.5530859485244662,-0.1609296115438235,-1.9373185352907287
0,0.0,0.0,-17.0,0.5531293790690259,-0.16088313105119884,-1.9374296505511845
0,0.0,0.0,-17.0,0.5530217154827741,-0.16095971921964378,-1.9372546730414542
0,0.0,0.0,-17.0,0.5530755814053485,-0.1609720082960177,-1.9372390335469014
0,0.0,0.0,-17.0,0.5532189757589869,-0.1608964791409296,-1.9372529613084126
0,0.0,0.0,-17.0,0.5531145985433015,-0.16101134215857243,-1.9370510020385425
0,0.0,0.0,-17.0,0.5531811469975481,-0.16098077396500263,-1.9370704733406439
0,0.0,0.0,-17.0,0.553200481587434,-0.16095368847040212,-1.9370083028890646
0,0.0,0.0,-17.0,0.5532865793575548,-0.16095689464701032,-1.9368086087167296
0,0.0,0.0,-17.0,0.5532271020526758,-0.16092706703246312,-1.9367786446219568
0,0.0,0.0,-17.0,0.553297718459679,-0.16092998101308503,-1.9367469146677943
0,0.0,0.0,-17.0,0.5532720776224496,-0.16092668471961163,-1.9367407171900024
0,0.0,0.0,-17.0,0.5533205573615518,-0.1609395272432043,-1.93659562806323
0,0.0,0.0,-17.0,0.5532446157553176,-0.1609201111047364,-1.9366154692182977
0,0.0,0.0,-17.0,0.5532839171935507,-0.16092507621975585,-1.9365456631327616
0,0.0,0.0,-17.0,0.5532521817334517,-0.16091955862455515,-1.9364653111858552
0,0.0,0.0,-17.0,0.5533162838001953,-0.16091579495032524,-1.9364388098368495
0,0.0,0.0,-17.0,0.5533038835302785,-0.16094572968879453,-1.936360883820125
0,0.0,0.0,-17.0,0.553350822905812,-0.16086439819454135,-1.9363671593379708
0,0.0,0.0,-17.0,0.5533089276964123,-0.16076393214097967,-1.9364346621495414
0,0.0,0.0,-17.0,0.5533036032992873,-0.1608712204892948,-1.9363112590817668
0,0.0,0.0,-17.0,0.5533157933922366,-0.16091872744622107,-1.9363419845555838
0,0.0,0.0,-17.0,0.5531999211612902,-0.16098059894629096,-1.9362524547557336
0,0.0,0.0,-17.0,0.553247277854704,-0.1609238357559275,-1.9362339305429428
0,0.0,0.0,-17.0,0.553275440332066,-0.1608312494610745,-1.9362031430046662
0,0.0,0.0,-17.0,0.5531995708950488,-0.16084595135910007,-1.93612691311607
0,0.0,0.0,-17.0,0.553098557272276,-0.16092163259748582,-1.936051494004265
0,0.0,0.0,-17.0,0.5531029703571976,-0.1609072516434414,-1.9360358873205614
0,0.0,0.0,-17.0,0.5531618126384936,-0.16083957936393478,-1.9361548687826424
0,0.0,0.0,-17.0,0.5530930934695079,-0.16085725209630805,-1.9359394292662677
0,0.0,0.0,-17.0,0.5531399566844575,-0.1609150896214719,-1.9358681598061436
0,0.0,0.0,-17.0,0.5531376450142589,-0.16093331764900545,-1.9359613065861234
0,0.0,0.0,-17.0,0.5531136878992082,-0.16095967152957058,-1.9359820118336526
0,0.0,0.0,-17.0,0.553140517089851,-0.16089503551411297,-1.9359055227961766
0,0.0,0.0,-17.0,0.5532624098712041,-0.16088564539190792,-1.935780860422079
0,0.0,0.0,-17.0,0.5529827005818725,-0.16093388202322748,-1.9358076104077242
0,0.0,0.0,-17.0,0.5530131699483583,-0.16104419004909631,-1.9358462677245543
0,0.0,0.0,-17.0,0.5530806248604153,-0.1609568835089058,-1.9358266000900715
0,0.0,0.0,-17.0,0.5530586299075726,-0.16101353776693636,-1.9357626546391002
0,0.0,0.0,-17.0,0.5530970862466408,-0.16106958619222095,-1.935746076227797
0,0.0,0.0,-17.0,0.5531126371566599,-0.16105060570472884,-1.9357798259314836
0,0.0,0.0,-17.0,0.5531448602382254,-0.16103413328981095,-1.935772801176375
0,0.0,0.0,-17.0,0.5530788736589597,-0.16109735933737757,-1.9357563955444208
0,0.0,0.0,-17.0,0.553162723309646,-0.16108524158456022,-1.9357306414461188
0,0.0,0.0,-17.0,0.5531031104553285,-0.16110287544780721,-1.9357532494037224
0,0.0,0.0,-17.0,0.5530914823516974,-0.16114235545365233,-1.9356997649291847
0,0.0,0.0,-17.0,0.5531057022729363,-0.16115792456742625,-1.9356941622798387
0,0.0,0.0,-17.0,0.5531375749636983,-0.1611594526422626,-1.9356552961935924
0,0.0,0.0,-17.0,0.553127767915122,-0.16117196585797228,-1.9356197116342504
0,0.0,0.0,-17.0,0.5531107458217907,-0.161145146385594,-1.9355965670236697
0,0.0,0.0,-17.0,0.5531720402054693,-0.1611643426406925,-1.9355400009762622
0,0.0,0.0,-17.0,0.5531342125403539,-0.16118416350433168,-1.935499085013211
0,0.0,0.0,-17.0,0.5531308501239901,-0.16118365900473464,-1.9354730676143068
0,0.0,0.0,-17.0,0.5531146685928684,-0.16119523212842174,-1.9354512404541577
0,0.0,0.0,-17.0,0.5531148086920111,-0.16120496871488724,-1.9353686793228344
0,0.0,0.0,-17.0,0.5530998181524552,-0.16120083643404365,-1.9353174405427511
0,0.0,0.0,-17.0,0.5531123569587622,-0.16121598986182556,-1.9353130495473587
0,0.0,0.0,-17.0,0.5530873494915982,-0.16121944199492907,-1.935240001091852
0,0.0,0.0,-17.0,0.5530602409927078,-0.16122763212169897,-1.9352005376308223
0,0.0,0.0,-17.0,0.5530651443051527,-0.16123505951733466,-1.9351717122622583
0,0.0,0.0,-17.0,0.5530519053956137,-0.16123542564639373,-1.9351540289741493
0,0.0,0.0,-17.0,0.5530654945423239,-0.16126142412477734,-1.9351027127743794
0,0.0,0.0,-17.0,0.553114878741587,-0.16122099900692644,-1.9350568631025737
0,0.0,0.0,-17.0,0.5530885403146132,-0.16122810789121,-1.9350351446498213
0,0.0,0.0,-17.0,0.5530486131968123,-0.16121841308621343,-1.935005881776281
0,0.0,0.0,-17.0,0.5530561782593542,-0.16122127953167628,-1.934997585240676
0,0.0,0.0,-17.0,0.5530543570373653,-0.1612197812058715,-1.9349748678866667
0,0.0,0.0,-17.0,0.5530581395776321,-0.1612266929345589,-1.934954295847549
0,0.0,0.0,-17.0,0.5530616419376062,-0.16123609004579503,-1.9349460172671038
0,0.0,0.0,-17.0,0.5530537266148462,-0.1612340909806068,-1.9349008504303447
0,0.0,0.0,-17.0,0.5530533763802195,-0.16122899900448626,-1.934858390007337
0,0.0,0.0,-17.0,0.5530339735001907,-0.16122853931377032,-1.934842380041889
0,0.0,0.0,-17.0,0.5530282997777421,-0.16121672926368633,-1.934853102293525
0,0.0,0.0,-17.0,0.5530228362119427,-0.16122974938536172,-1.9348234220620222
0,0.0,0.0,-17.0,0.5530624825051267,-0.16124830032118706,-1.9348217400362662
0,0.0,0.0,-17.0,0.5530357246531076,-0.16125594798696188,-1.9348167084001204
0,0.0,0.0,-17.0,0.5530242371244937,-0.16124821689899516,-1.9348117458709109
0,0.0,0.0,-17.0,0.5530219956649935,-0.1612527277633711,-1.934821632894058
0,0.0,0.0,-17.0,0.5530519754424693,-0.16126243841321405,-1.9348385031825566
0,0.0,0.0,-17.0,0.5530308214297105,-0.16124876545530803,-1.9348907557812407
0,0.0,0.0,-17.0,0.5530640935940936,-0.16122622370492162,-1.934946746920452
0,0.0,0.0,-17.0,0.5530778929869715,-0.16123903344272858,-1.934971429525291
0,0.0,0.0,-17.0,0.5531039510443685,-0.161230244170172,-1.935003844767096
0,0.0,0.0,-17.0,0.5530946345402175,-0.16122984343469304,-1.9350581874364414
0,0.0,0.0,-17.0,0.5531077337004471,-0.16121145204804177,-1.935109024293902
0,0.0,0.0,-17.0,0.553088680411496,-0.1612338222368287,-1.9351444493829193
0,0.0,0.0,-17.0,0.5530878398303807,-0.16124069352986592,-1.935201461277094
0,0.0,0.0,-17.0,0.5530766321238592,-0.1612309665259087,-1.9352542867859805
0,0.0,0.0,-17.0,0.5530630428837161,-0.16122305353361463,-1.935314030639463
0,0.0,0.0,-17.0,0.5530286500069475,-0.16121246211463494,-1.935339167078983
0,0.0,0.0,-17.0,0.5530201044359527,-0.1611879777821039,-1.9353698976399276
0,0.0,0.0,-17.0,0.5530120492258767,-0.16119245681444003,-1.9354258319600735
0,0.0,0.0,-17.0,0.5529961490591943,-0.1611714140260014,-1.9354015631168155
0,0.0,0.0,-17.0,0.552993977682903,-0.16117855884452859,-1.9354726596660408
0,0.0,0.0,-17.0,0.5529903353808205,-0.16118917619684442,-1.93550521746944
0,0.0,0.0,-17.0,0.5529763266029676,-0.161200676890352,-1.9355725608464016
0,0.0,0.0,-17.0,0.5529827706257361,-0.16120070995183142,-1.935616955368821
0,0.0,0.0,-17.0,0.5529833309767532,-0.16118666567183787,-1.9356281640348263
0,0.0,0.0,-17.0,0.5529534225120888,-0.16118242352603454,-1.9356236412695418
0,0.0,0.0,-17.0,0.5529485895801514,-0.16116327444186562,-1.93563164903303
0,0.0,0.0,-17.0,0.5529616175165809,-0.16116566064136664,-1.935611358923648
0,0.0,0.0,-17.0,0.5529281373321121,-0.16116804598986129,-1.9355859272121967
0,0.0,0.0,-17.0,0.5529051638818842,-0.16114727240103485,-1.9355528029879816
0,0.0,0.0,-17.0,0.5528838016670493,-0.16115909013279653,-1.935551839065013
0,0.0,0.0,-17.0,0.5528899651624257,-0.16116794395445316,-1.9355241469181175
0,0.0,0.0,-17.0,0.5528953582401102,-0.16116527090942134,-1.9355101050393009
0,0.0,0.0,-17.0,0.5528944477192418,-0.16113364242236675,-1.9354713950545661
0,0.0,0.0,-17.0,0.5528837316274638,-0.16115039387800173,-1.9354661418384023
0,0.0,0.0,-17.0,0.5528805098098041,-0.16114049353861026,-1.9354500706498885
0,0.0,0.0,-17.0,0.5528889846047751,-0.16114587881820328,-1.9354331065774688
0,0.0,0.0,-17.0,0.5529054440439495,-0.1611553260557364,-1.9354440221741975
0,0.0,0.0,-17.0,0.5529011015373789,-0.16115057554841736,-1.935428978792357
0,0.0,0.0,-17.0,0.5529049537603669,-0.16116315153489671,-1.9354197548405578
0,0.0,0.0,-17.0,0.552923024310438,-0.16116597992989046,-1.9354204912371689
0,0.0,0.0,-17.0,0.5529079655047179,-0.1612008864063416,-1.935414731749969
0,0.0,0.0,-17.0,0.5528931169588929,-0.161203922083313,-1.9354310576582372
0,0.0,0.0,-17.0,0.5528845721026894,-0.16119289761835448,-1.935399195037333
0,0.0,0.0,-17.0,0.5528868834118073,-0.16117166488953583,-1.9353929312064568
0,0.0,0.0,-17.0,0.5529003310938801,-0.16115511413414968,-1.9353662631660435
0,0.0,0.0,-17.0,0.552899980892411,-0.16116341704867723,-1.935375033588898
0,0.0,0.0,-17.0,0.5528879340079506,-0.1611698545223832,-1.9353535610359887
0,0.0,0.0,-17.0,0.5529300984953914,-0.16114560451317583,-1.9353454973110464
0,0.0,0.0,-17.0,0.552900471174489,-0.16114134231833926,-1.9353390977315237
0,0.0,0.0,-17.0,0.5529178412638378,-0.1611456721617059,-1.9353567009544257
0,0.0,0.0,-17.0,0.5529117477032268,-0.1611151039496399,-1.9353362030502168
0,0.0,0.0,-17.0,0.5529086659111832,-0.161096270770741,-1.9353056389415175
0,0.0,0.0,-17.0,0.5529052339223959,-0.16111039045192457,-1.935322349866574
0,0.0,0.0,-17.0,0.5529482393682522,-0.16112551498274075,-1.93532104881544
0,0.0,0.0,-17.0,0.552951951618234,-0.16112387330526623,-1.935303888834954
0,0.0,0.0,-17.0,0.5529634386343192,-0.1610988051909505,-1.9352825421141508
0,0.0,0.0,-17.0,0.5529588858438115,-0.1610978147987374,-1.9352692440344739
0,0.0,0.0,-17.0,0.552972123993231,-0.16108416794345487,-1.9352235855699544
0,0.0,0.0,-17.0,0.5529550334926047,-0.16108938410552337,-1.935185224794003
0,0.0,0.0,-17.0,0.5529648394955107,-0.16109259503561735,-1.9351767993067321
0,0.0,0.0,-17.0,0.5529515313630922,-0.16109443058153386,-1.9351520357051175
0,0.0,0.0,-17.0,0.5529508309380979,-0.16108885025520758,-1.9351311215691245
0,0.0,0.0,-17.0,0.5529442469579527,-0.16111046889002192,-1.9351375345898945
0,0.0,0.0,-17.0,0.5529655399265606,-0.16109635864082644,-1.9351575621996728
0,0.0,0.0,-17.0,0.5529515313630922,-0.16110108056709174,-1.9351613738323168
0,0.0,0.0,-17.0,0.5529757662543728,-0.16113663640699336,-1.9351983646578585
0,0.0,0.0,-17.0,0.5529373127950232,-0.16111435506516938,-1.9351740248580902
0,0.0,0.0,-17.0,0.5529729645143062,-0.16113488436617954,-1.9352011504240112
0,0.0,0.0,-17.0,0.5529393440113941,-0.1611453282799027,-1.9352045015508066
0,0.0,0.0,-17.0,0.5529830508012205,-0.1611469849052483,-1.9352172801020058
0,0.0,0.0,-17.0,0.5529439667891782,-0.16115511021917556,-1.935221339932693
0,0.0,0.0,-17.0,0.5529802490485569,-0.16116163361526975,-1.9352120053976412
0,0.0,0.0,-17.0,0.5529980402602707,-0.16116316427229904,-1.9352380242823253
0,0.0,0.0,-17.0,0.553023116394356,-0.1611793969854032,-1.9352257007125246
0,0.0,0.0,-17.0,0.5530065857148813,-0.16117462988957643,-1.9351769031841686
0,0.0,0.0,-17.0,0.5530703278230188,-0.16116486355966098,-1.9351461658667883
0,0.0,0.0,-17.0,0.5530376859466217,-0.16118883593542535,-1.935142068857407
0,0.0,0.0,-17.0,0.5530605211815905,-0.16119268690293914,-1.9351047129410421
0,0.0,0.0,-17.0,0.5530590501904968,-0.16119764805539558,-1.9351052238025954
0,0.0,0.0,-17.0,0.5530634631677853,-0.16121157149515955,-1.9350984419459707
0,0.0,0.0,-17.0,0.5530420988657105,-0.16119997241242187,-1.9350949092098328
0,0.0,0.0,-17.0,0.5530647940680573,-0.16118095035795654,-1.9350638989221847
0,0.0,0.0,-17.0,0.5530571589181963,-0.16117737344334163,-1.9350773756882067
0,0.0,0.0,-17.0,0.553084547558546,-0.16117878018923817,-1.9351140692376811
0,0.0,0.0,-17.0,0.5530766321238592,-0.16117020887137862,-1.9351377012391981
0,0.0,0.0,-17.0,0.553128958767853,-0.16118224145949794,-1.935164265186313
0,0.0,0.0,-17.0,0.5531038109461649,-0.16121077070562564,-1.935238116930671
0,0.0,0.0,-17.0,0.5531524257503048,-0.16118828489188425,-1.9352925700252188
0,0.0,0.0,-17.0,0.5531579598046693,-0.16119506894177618,-1.935318582271855
0,0.0,0.0,-17.0,0.553218625488624,-0.16118737155205964,-1.9353428119172524
0,0.0,0.0,-17.0,0.5532245100407767,-0.1612026545340023,-1.9354193330908869
0,0.0,0.0,-17.0,0.5532570155713238,-0.16120592944261253,-1.935440008604215
0,0.0,0.0,-17.0,0.5532516212894145,-0.1612257232444438,-1.9354675395386105
0,0.0,0.0,-17.0,0.5532702561576566,-0.16123106547835966,-1.9354805284401428
0,0.0,0.0,-17.0,0.5532493094598119,-0.16126081022289498,-1.9355094055053907
0,0.0,0.0,-17.0,0.5532716572842385,-0.16129215275044598,-1.9355244915506287
0,0.0,0.0,-17.0,0.5532719375097004,-0.16130009891268227,-1.935531175568221
0,0.0,0.0,-17.0,0.553307176248057,-0.1612972911702474,-1.935509363081215
0,0.0,0.0,-17.0,0.5533286841650911,-0.1612869833781725,-1.9355223171760296
0,0.0,0.0,-17.0,0.553310609088616,-0.16129770348165262,-1.935521847230618
0,0.0,0.0,-17.0,0.553350822905812,-0.16129228940197451,-1.9355344612174386
0,0.0,0.0,-17.0,0.5533751338337976,-0.1613317096042377,-1.9355584845672467
0,0.0,0.0,-17.0,0.5533862034839377,-0.16134142462173892,-1.9355884013529323
0,0.0,0.0,-17.0,0.5533468995625991,-0.16133382624973083,-1.9355933944461703
0,0.0,0.0,-17.0,0.5533739428000019,-0.16131779550582503,-1.9355680679288993
0,0.0,0.0,-17.0,0.5533583893802885,-0.16132472873124237,-1.935587271016633
0,0.0,0.0,-17.0,0.5533797578556625,-0.16132853980195402,-1.9355676777170632
0,0.0,0.0,-17.0,0.5533634337162542,-0.1613503699769502,-1.935581830391402
0,0.0,0.0,-17.0,0.5533969229008391,-0.16134716437517477,-1.9355864797791609
0,0.0,0.0,-17.0,0.5533537654194615,-0.16135745313914945,-1.9355410158704336
0,0.0,0.0,-17.0,0.5533452181327042,-0.16133178880251453,-1.935496373546408
0,0.0,0.0,-17.0,0.5533179652000386,-0.16135035016993834,-1.9354597115287808
0,0.0,0.0,-17.0,0.553330295518915,-0.16134280594518108,-1.9354287529861351
0,0.0,0.0,-17.0,0.553326302166724,-0.16135195452768425,-1.9354127334024982
0,0.0,0.0,-17.0,0.5533715607350395,-0.16137502277658003,-1.9354008416542618
0,0.0,0.0,-17.0,0.5533586696207631,-0.16136393508111313,-1.9353953495490053
0,0.0,0.0,-17.0,0.5534023176669166,-0.16135093546305163,-1.9353980413522156
0,0.0,0.0,-17.0,0.5534014068609926,-0.16135609772967627,-1.9354015889850191
0,0.0,0.0,-17.0,0.5534168205687588,-0.16132171677426144,-1.935385638420501
0,0.0,0.0,-17.0,0.5534144384406967,-0.1613305080325336,-1.9354270910642768
0,0.0,0.0,-17.0,0.55348099922089,-0.16133294270837095,-1.935449784700361
0,0.0,0.0,-17.0,0.5534978150090303,-0.16133002928543985,-1.93547741627017
0,0.0,0.0,-17.0,0.5535037005761597,-0.16132185423337006,-1.9354969806690585
0,0.0,0.0,-17.0,0.5534936110456143,-0.16132817305557678,-1.9355235718595796
0,0.0,0.0,-17.0,0.5535151915070097,-0.16131791635533113,-1.9355421272555091
0,0.0,0.0,-17.0,0.5534644638662652,-0.16130981783874146,-1.9355667465955861
0,0.0,0.0,-17.0,0.5534788972596579,-0.16130649500265262,-1.9355816507136523
0,0.0,0.0,-17.0,0.5534633428313889,-0.16131041936401633,-1.935607016104353
0,0.0,0.0,-17.0,0.5534644638662652,-0.1612972393804831,-1.9356299078066082
0,0.0,0.0,-17.0,0.5534629925081492,-0.16128070232908118,-1.9356449160790365
0,0.0,0.0,-17.0,0.5534667059383477,-0.16129638771363708,-1.9356861546923227
0,0.0,0.0,-17.0,0.5534353172118336,-0.16129589189318844,-1.9356858256759815
0,0.0,0.0,-17.0,0.5534667059383477,-0.16127080457802326,-1.9356803993787353
0,0.0,0.0,-17.0,0.5534652345781933,-0.1612760491513452,-1.935690593635417
0,0.0,0.0,-17.0,0.5534756742577378,-0.1612823938679205,-1.9356987124647727
0,0.0,0.0,-17.0,0.5534325847398909,-0.16124767389159095,-1.9356818516635108
0,0.0,0.0,-17.0,0.553435177084955,-0.16124294795619395,-1.9356988451054475
0,0.0,0.0,-17.0,0.5534002158078654,-0.1612414600285382,-1.9357057652434047
0,0.0,0.0,-17.0,0.5533885855704479,-0.16123887344860463,-1.9357276823306908
0,0.0,0.0,-17.0,0.5533726116456202,-0.1612638023200652,-1.9357705407425199
0,0.0,0.0,-17.0,0.5533782165135732,-0.16127752995619388,-1.9357904473733614
0,0.0,0.0,-17.0,0.5533822099938295,-0.16128518576267756,-1.9358226244412005
0,0.0,0.0,-17.0,0.5534007763033455,-0.1612765315262746,-1.9358623935420454
0,0.0,0.0,-17.0,0.5533981840133768,-0.161272592863657,-1.9358889918578406
0,0.0,0.0,-17.0,0.5534168906314021,-0.16127884835138184,-1.9359088464793786
0,0.0,0.0,-17.0,0.5534218650868166,-0.16127767889571448,-1.9359553295207488
0,0.0,0.0,-17.0,0.5534497503452979,-0.16130599969675202,-1.936012006688935
0,0.0,0.0,-17.0,0.5534518522686752,-0.16131339544980125,-1.9360188609526159
0,0.0,0.0,-17.0,0.5534369286718083,-0.16131416796095624,-1.936032430543455
0,0.0,0.0,-17.0,0.5534548650302765,-0.16132550009246965,-1.936049642620697
0,0.0,0.0,-17.0,0.5534470178489883,-0.1613416907254562,-1.9360436061660506
0,0.0,0.0,-17.0,0.5534596994734032,-0.16133595911029766,-1.9360222217899516
0,0.0,0.0,-17.0,0.5534709098318739,-0.16135106832566826,-1.9360052757326975
0,0.0,0.0,-17.0,0.5534694384678975,-0.16136563704670936,-1.9360159874101341
0,0.0,0.0,-17.0,0.5534653046429322,-0.1613957678883013,-1.9360180546292456
0,0.0,0.0,-17.0,0.5534791074556583,-0.16140301003988636,-1.9360067598244333
0,0.0,0.0,-17.0,0.5534688078837458,-0.1614124619233823,-1.9360280657194686
0,0.0,0.0,-17.0,0.5535019489170387,-0.16140337189394968,-1.9360250481400496
0,0.0,0.0,-17.0,0.5534751838014865,-0.16143322701412416,-1.936039562891387
0,0.0,0.0,-17.0,0.553506222968625,-0.1614412767765872,-1.9360666004679423
0,0.0,0.0,-17.0,0.5534665658087515,-0.16144315278347515,-1.9360447693330627
0,0.0,0.0,-17.0,0.5534915090680016,-0.16145577793232377,-1.9360347242218678
0,0.0,0.0,-17.0,0.5534662855495956,-0.16146065045180746,-1.936012193538116
0,0.0,0.0,-17.0,0.5535104970314996,-0.16145230497585936,-1.935981141770153
0,0.0,0.0,-17.0,0.553460189924962,-0.1614490937442302,-1.9359609817231995
0,0.0,0.0,-17.0,0.5534997768623617,-0.16148768373089314,-1.9359874631443075
0,0.0,0.0,-17.0,0.5534697187275994,-0.1615131100293734,-1.9359643999968497
0,0.0,0.0,-17.0,0.5534919294633057,-0.16151500123016235,-1.935933667270701
0,0.0,0.0,-17.0,0.5534765150402285,-0.16152309303597318,-1.93590877584566
0,0.0,0.0,-17.0,0.5535072739666459,-0.1615404005747607,-1.9358840722210464
0,0.0,0.0,-17.0,0.553466495743958,-0.16154925139865345,-1.9358471414907636
0,0.0,0.0,-17.0,0.5534870248582193,-0.16154639249599403,-1.9358403391181231
0,0.0,0.0,-17.0,0.5534640434780956,-0.16156298711694547,-1.9358214799684288
0,0.0,0.0,-17.0,0.553460820505756,-0.1615721283751682,-1.9358152361683756
0,0.0,0.0,-17.0,0.5534510114989967,-0.16157599737429995,-1.935779212599851
0,0.0,0.0,-17.0,0.5534784768677392,-0.1615631624836323,-1.9357698887519392
0,0.0,0.0,-17.0,0.55346390334873,-0.16157522300290977,-1.9357649036100066
0,0.0,0.0,-17.0,0.55349354097965,-0.16159242148467243,-1.9357543645778068
0,0.0,0.0,-17.0,0.5534737124336245,-0.16160234214234598,-1.935742710699361
0,0.0,0.0,-17.0,0.5534870949239016,-0.16160134246805744,-1.935726917135632
0,0.0,0.0,-17.0,0.5534490497047787,-0.16159944185175845,-1.9357239265852586
0,0.0,0.0,-17.0,0.5534676167810183,-0.161595438692043,-1.9357397012742545
0,0.0,0.0,-17.0,0.5534421133800037,-0.16160235980258103,-1.935772790732018
0,0.0,0.0,-17.0,0.5534398012783512,-0.16160002073671192,-1.9357733569069995
0,0.0,0.0,-17.0,0.5534196931396144,-0.16158658548064317,-1.9357783641006794
0,0.0,0.0,-17.0,0.5534643237368633,-0.16157819989484604,-1.9357643049886952
0,0.0,0.0,-17.0,0.5534217249611026,-0.16156632323975745,-1.9357569026132442
0,0.0,0.0,-17.0,0.5534448458680331,-0.16155709759229236,-1.9357422129646513
0,0.0,0.0,-17.0,0.5534256484856772,-0.16155187640876176,-1.935725378032218
0,0.0,0.0,-17.0,0.5534585083773792,-0.16154328519504463,-1.9357237575268198
0,0.0,0.0,-17.0,0.5534311134107556,-0.1615503033808617,-1.9357308126403392
0,0.0,0.0,-17.0,0.5534548650302765,-0.16154807935360888,-1.9357485420530567
0,0.0,0.0,-17.0,0.5534749736059957,-0.16154912004156693,-1.9357502192877798
0,0.0,0.0,-17.0,0.5534670562623911,-0.16154694644248335,-1.9357466038087079
0,0.0,0.0,-17.0,0.5534770054968833,-0.16156058830882905,-1.935775394001355
0,0.0,0.0,-17.0,0.5534635530253691,-0.16157191520280625,-1.9357794572928186
0,0.0,0.0,-17.0,0.5534548650302765,-0.16156456251747514,-1.9357944797239774
0,0.0,0.0,-17.0,0.553466635873548,-0.1615663333648457,-1.9358036288393532
0,0.0,0.0,-17.0,0.5534644638662652,-0.16154030011422266,-1.9357979219639436
0,0.0,0.0,-17.0,0.5534285210722001,-0.1615691331707682,-1.935840818287935
0,0.0,0.0,-17.0,0.5534735022383249,-0.16155590790221835,-1.935862323936108
0,0.0,0.0,-17.0,0.5534405019148668,-0.16156649190771993,-1.9358853857794731
0,0.0,0.0,-17.0,0.553458998828577,-0.16157735894184733,-1.9359173191383985
0,0.0,0.0,-17.0,0.5534512917555077,-0.16159444659924962,-1.9359416760795132
0,0.0,0.0,-17.0,0.5534742729545571,-0.16159283542684733,-1.9359507278071304
0,0.0,0.0,-17.0,0.5534511516272461,-0.16159216330186182,-1.9359685637550936
0,0.0,0.0,-17.0,0.5534717506118895,-0.16160670662971005,-1.936010738411036
0,0.0,0.0,-17.0,0.5534599797314186,-0.16160176485307215,-1.9360201141122362
0,0.0,0.0,-17.0,0.5534777762147838,-0.16157765157678505,-1.9360372204314087
0,0.0,0.0,-17.0,0.5534601198604445,-0.16158264655346297,-1.9360479065845733
0,0.0,0.0,-17.0,0.553457877797486,-0.16158538710319328,-1.9360902948361147
0,0.0,0.0,-17.0,0.5534316739169352,-0.1615716226618515,-1.9361203854803775
0,0.0,0.0,-17.0,0.5534582281196185,-0.16157602479701194,-1.9361958210315566
0,0.0,0.0,-17.0,0.5534607504412112,-0.1615764710121437,-1.936220018369794
0,0.0,0.0,-17.0,0.5535081147655541,-0.16158430039142674,-1.93629557619825
0,0.0,0.0,-17.0,0.5535021591160331,-0.16158034808337265,-1.9363069260630295
0,0.0,0.0,-17.0,0.5535473525338314,-0.16154541983088125,-1.936331589266653
0,0.0,0.0,-17.0,0.5535090256315309,-0.161549395892582,-1.9363363973353622
0,0.0,0.0,-17.0,0.5535460212368146,-0.16155843984723273,-1.9363816059514802
0,0.0,0.0,-17.0,0.5535091657648036,-0.1615533148980587,-1.936408408950926
0,0.0,0.0,-17.0,0.5535538688981884,-0.16155847693484818,-1.9364467996455188
0,0.0,0.0,-17.0,0.5535250709701077,-0.1615856077296863,-1.9364729355369987
0,0.0,0.0,-17.0,0.55356907385041,-0.161568105009873,-1.9364949391312858
0,0.0,0.0,-17.0,0.553550155267973,-0.16159078216829112,-1.9365256629795524
0,0.0,0.0,-17.0,0.5535849796445859,-0.16158017403166275,-1.9365465851743155
0,0.0,0.0,-17.0,0.5535409062637284,-0.16158480683715237,-1.9365556288353476
0,0.0,0.0,-17.0,0.5535858204838717,-0.16160498231475615,-1.9366021188548415
0,0.0,0.0,-17.0,0.5535746093293225,-0.16163125393045885,-1.9366272315062092
0,0.0,0.0,-17.0,0.5536153902766461,-0.16161399511315774,-1.936640267987279
0,0.0,0.0,-17.0,0.553557652605664,-0.16163620371260512,-1.9366312903250906
0,0.0,0.0,-17.0,0.5535788835728318,-0.16164483756827938,-1.9366579054177837
0,0.0,0.0,-17.0,0.5535615063908917,-0.16164216805536114,-1.936657698143647
0,0.0,0.0,-17.0,0.5535751698852049,-0.16163970791917262,-1.9366511472592713
0,0.0,0.0,-17.0,0.5535549199271552,-0.16164132419850322,-1.9366611392459494
0,0.0,0.0,-17.0,0.5535747494682749,-0.16165166876211004,-1.9367050962348191
0,0.0,0.0,-17.0,0.5535107772983119,-0.16166127859424978,-1.9367105443478052
0,0.0,0.0,-17.0,0.5535422375565369,-0.16165018959159064,-1.93670268170786
0,0.0,0.0,-17.0,0.5534859738733489,-0.16165131344430128,-1.9367238841984329
0,0.0,0.0,-17.0,0.5535123888334251,-0.16165899148991988,-1.9367697872360348
0,0.0,0.0,-17.0,0.5534606803766694,-0.1616659939379173,-1.936794972084601
0,0.0,0.0,-17.0,0.5534924199246319,-0.16167660939050527,-1.9368201165853791
0,0.0,0.0,-17.0,0.5535077644326225,-0.16166642819793778,-1.9368082940888045
0,0.0,0.0,-17.0,0.5534694384678975,-0.16165092585062024,-1.936761478544473
0,0.0,0.0,-17.0,0.5534929103861067,-0.1616318115392733,-1.9367384469751978
0,0.0,0.0,-17.0,0.5534683874944478,-0.1616413103516309,-1.9366957832715044
0,0.0,0.0,-17.0,0.553436368163809,-0.16165586987321384,-1.936670697215483
0,0.0,0.0,-17.0,0.55348457256125,-0.1616568053990289,-1.9366192024698279
0,0.0,0.0,-17.0,0.5534690881433385,-0.1616706754458945,-1.936586547734246
0,0.0,0.0,-17.0,0.5534922797928092,-0.16165750273522903,-1.9365544841196576
0,0.0,0.0,-17.0,0.5534587185707315,-0.1616787722276872,-1.9365148694165413
0,0.0,0.0,-17.0,0.5534843623645399,-0.16169367436297377,-1.936479447007731
0,0.0,0.0,-17.0,0.5535198159290362,-0.16168735549785035,-1.936442978777142
0,0.0,0.0,-17.0,0.5534835215779722,-0.16169774229110612,-1.936388603524865
0,0.0,0.0,-17.0,0.5534975347444628,-0.1616950399730273,-1.936366168815556
0,0.0,0.0,-17.0,0.5534982354059725,-0.16173069234261547,-1.9363291845228534
0,0.0,0.0,-17.0,0.5535123888334251,-0.16174934918333758,-1.9363242905300997
0,0.0,0.0,-17.0,0.5535110575651728,-0.16175267239373545,-1.9362934150943731
0,0.0,0.0,-17.0,0.5535273831935855,-0.16176001327848472,-1.936251468708122
0,0.0,0.0,-17.0,0.5535044012403391,-0.16176669061304483,-1.9362361450559296
0,0.0,0.0,-17.0,0.5535191152581828,-0.1617707430886494,-1.9361910047822315
0,0.0,0.0,-17.0,0.5535127391673577,-0.16176715665971605,-1.9361641788700072
0,0.0,0.0,-17.0,0.553535651171232,-0.16176678344403228,-1.9361719559205306
0,0.0,0.0,-17.0,0.5535172935153835,-0.1617707325810695,-1.9361468591562911
0,0.0,0.0,-17.0,0.5535341096806704,-0.1617801690366521,-1.936142589337419
0,0.0,0.0,-17.0,0.5535142105707029,-0.1617878360071859,-1.9361382200067065
0,0.0,0.0,-17.0,0.5535238798259692,-0.1617958216736482,-1.936120330839856
0,0.0,0.0,-17.0,0.5534847126924053,-0.1617895790693105,-1.9361082321247671
0,0.0,0.0,-17.0,0.5535006877236456,-0.16179646297274952,-1.9361080022440258
0,0.0,0.0,-17.0,0.5534678970404048,-0.16179787571901513,-1.936101596101584
0,0.0,0.0,-17.0,0.5534898975536808,-0.1617898562218055,-1.9361005041977029
0,0.0,0.0,-17.0,0.5534753939970046,-0.16179655287339773,-1.936101371363955
0,0.0,0.0,-17.0,0.5534892669615573,-0.16179054280187027,-1.9361135989571947
0,0.0,0.0,-17.0,0.5534634829607059,-0.16181240702027347,-1.9361401038275758
0,0.0,0.0,-17.0,0.5534823304644158,-0.16181762648950604,-1.9361253784948382
0,0.0,0.0,-17.0,0.5534674065865104,-0.16181285960462782,-1.9361167483110653
0,0.0,0.0,-17.0,0.5535210070701834,-0.161796780694817,-1.936102993157761
0,0.0,0.0,-17.0,0.5534710499618462,-0.16180827063806805,-1.9361164021067963
0,0.0,0.0,-17.0,0.5534847827579875,-0.16178254093491617,-1.9360966214585693
0,0.0,0.0,-17.0,0.553443724846745,-0.16178615391421738,-1.9361126255646801
0,0.0,0.0,-17.0,0.5534740627591846,-0.16177446561728584,-1.9360996370225851
0,0.0,0.0,-17.0,0.5534168205687588,-0.16178570001676548,-1.9360913780910913
0,0.0,0.0,-17.0,0.553439100642139,-0.16177847191860859,-1.9360735249753676
0,0.0,0.0,-17.0,0.5534043494665939,-0.16176137069330027,-1.93603390805885
0,0.0,0.0,-17.0,0.5534368586082978,-0.16175513455844523,-1.9360238690666516
0,0.0,0.0,-17.0,0.5534187823239132,-0.161778128333347,-1.9360110478825565
0,0.0,0.0,-17.0,0.5534494000250003,-0.16179267309829026,-1.9360180794461963
