timestamp,latitude,longitude,altitude,pitch,roll,yaw
0,0.0,0.0,0.0,0.5537131426087345,-0.16532708134846594,-1.9520645186970484
0,0.0,0.0,0.0,0.5537131426087345,-0.16532708134846594,-1.9520645186970484
1738165865147734,0.0,0.0,-17.0,0.553735636992171,-0.1655369268043874,-1.9522989430009265
1738165865275730,0.0,0.0,-17.0,0.5539163742508836,-0.16545612471782578,-1.952435496666597
1738165865275730,0.0,0.0,-17.0,0.5538704696987118,-0.1655001942008033,-1.9526978261226933
1738165865275730,0.0,0.0,-17.0,0.554011831859233,-0.16537105523319717,-1.9532273510805285
1738165865397732,0.0,0.0,-17.0,0.5540059444427528,-0.16551911179005224,-1.9538303317580374
1738165865397732,0.0,0.0,-17.0,0.5538095693347191,-0.16547867122591048,-1.9543329456873764
1738165865521729,0.0,0.0,-17.0,0.5537394211247972,-0.16562199239547926,-1.9546366673817295
1738165865521729,0.0,0.0,-17.0,0.5537729180922415,-0.1655854698540988,-1.954767128810926
1738165865521729,0.0,0.0,-17.0,0.5539091555860919,-0.16570101208004076,-1.9550414775769007
1738165865647732,0.0,0.0,-17.0,0.5539413945326739,-0.1657117788101249,-1.955703215855219
1738165865647732,0.0,0.0,-17.0,0.5539601775196739,-0.1657027289947606,-1.9559721249308173
1738165865772729,0.0,0.0,-17.0,0.5538877801172293,-0.16560736309270327,-1.956356020141703
1738165865772729,0.0,0.0,-17.0,0.5538549115049753,-0.1652864295133834,-1.9559735912008465
1738165865772729,0.0,0.0,-17.0,0.5537701850500767,-0.1659626669465922,-1.956825093335218
1738165865896878,0.0,0.0,-17.0,0.5535287845427557,-0.16535135464972686,-1.957459151037517
1738165865896878,0.0,0.0,-17.0,0.553950365484316,-0.16518368133279307,-1.957277402370103
1738165866022735,0.0,0.0,-17.0,0.5538272295033543,-0.16551709785209598,-1.9578562453636628
1738165866022735,0.0,0.0,-17.0,0.5543198998221317,-0.1662208428597269,-1.9586658752405397
1738165866022735,0.0,0.0,-17.0,0.5546506739048055,-0.16638736587019876,-1.9594697386833027
1738165866147964,0.0,0.0,-17.0,0.5545499902617527,-0.16658185857361485,-1.9598275119909394
1738165866147964,0.0,0.0,-17.0,0.5546846104753275,-0.16586197602056982,-1.9595138437780157
1738165866272731,0.0,0.0,-17.0,0.5543961723623642,-0.1657878999918662,-1.9588642091905581
1738165866272731,0.0,0.0,-17.0,0.554378225558272,-0.16572961629823862,-1.9586593971107058
1738165866272731,0.0,0.0,-17.0,0.5542090026085418,-0.1654950446357823,-1.9595022871372565
1738165866400730,0.0,0.0,-17.0,0.5546505336725233,-0.16563164236169048,-1.9601039270132605
1738165866400730,0.0,0.0,-17.0,0.5544913077756681,-0.16563885029326514,-1.9605353590923553
1738165866522768,0.0,0.0,-17.0,0.5545091857265281,-0.1658550433732131,-1.9613938978086771
1738165866522768,0.0,0.0,-17.0,0.5543063702347519,-0.1659346788033884,-1.9607303259705702
1738165866522768,0.0,0.0,-17.0,0.5538163670752128,-0.16527316547730925,-1.9616624045064475
1738165866646731,0.0,0.0,-17.0,0.5539104170980034,-0.16531980984533234,-1.9630180026146622
1738165866646731,0.0,0.0,-17.0,0.5545783156658056,-0.16493635916888763,-1.9624586214706414
1738165866768851,0.0,0.0,-17.0,0.5550053603380526,-0.1658235543009932,-1.9642491205616117
1738165866768851,0.0,0.0,-17.0,0.5550207893548313,-0.1648826591466599,-1.9635556549385147
1738165866768851,0.0,0.0,-17.0,0.5546864335344347,-0.16593291569262927,-1.9648910808932152
1738165866896731,0.0,0.0,-17.0,0.5548755520456544,-0.16573724855457678,-1.9658623939661264
1738165866896731,0.0,0.0,-17.0,0.5553372570302384,-0.1662598454430124,-1.9670167143866928
1738165867021903,0.0,0.0,-17.0,0.555466611441098,-0.166131098210983,-1.967473846324079
1738165867021903,0.0,0.0,-17.0,0.55560944648854,-0.16590900810103545,-1.9674553944461302
1738165867021903,0.0,0.0,-17.0,0.5542684459331786,-0.16503607928734837,-1.966824234864451
1738165867147754,0.0,0.0,-17.0,0.5542345882054198,-0.16529717636667585,-1.9670973701225993
1738165867147754,0.0,0.0,-17.0,0.5543470995427782,-0.16515919960758088,-1.9673678680444746
1738165867270772,0.0,0.0,-17.0,0.5545753709224353,-0.16508716632714934,-1.9679906582750766
1738165867270772,0.0,0.0,-17.0,0.5554056508290814,-0.16401720259180946,-1.9682676366066114
1738165867270772,0.0,0.0,-17.0,0.5552880152921971,-0.16523842769222338,-1.9699066116973376
1738165867398753,0.0,0.0,-17.0,0.5557824650372986,-0.1649016586177592,-1.9707668075637819
1738165867398753,0.0,0.0,-17.0,0.5562975613952683,-0.1656523696262402,-1.9719896313669616
1738165867520755,0.0,0.0,-17.0,0.5595917687690947,-0.1694986064991813,-1.976704415238917
1738165867520755,0.0,0.0,-17.0,0.5620729832621557,-0.17202982096702177,-1.9818733750240138
1738165867520755,0.0,0.0,-17.0,0.5658250805515621,-0.17580963629397173,-1.9874546818432397
1738165867647753,0.0,0.0,-17.0,0.5648273332505178,-0.17736615530713729,-1.9890212008957078
1738165867647753,0.0,0.0,-17.0,0.5625984266243393,-0.1776057461058686,-1.988348417970965
1738165867647753,0.0,0.0,-17.0,0.5628812291889537,-0.17774980486248873,-1.9896648919373374
1738165867773375,0.0,0.0,-17.0,0.5639671724617309,-0.17788923948951146,-1.989557434084906
1738165867773375,0.0,0.0,-17.0,0.5716374589492098,-0.1775668843638525,-1.9903358947763843
1738165867895809,0.0,0.0,-17.0,0.5844234245432122,-0.1807717500122526,-1.9959962358760766
1738165867895809,0.0,0.0,-17.0,0.5899969833057435,-0.18751797426945355,-2.004636723873095
1738165868022772,0.0,0.0,-17.0,0.5880185062706117,-0.18379076305481826,-2.0020292230501364
1738165868022772,0.0,0.0,-17.0,0.5879811124173459,-0.18474953675794994,-2.005292997851538
1738165868022772,0.0,0.0,-17.0,0.5871944098947628,-0.18544245935709328,-2.0059763624463858
1738165868146940,0.0,0.0,-17.0,0.5864262953573998,-0.1858574748707499,-2.0062373846643737
1738165868146940,0.0,0.0,-17.0,0.5859331078518031,-0.18595439139769396,-2.007136964767741
1738165868273038,0.0,0.0,-17.0,0.5835076531756472,-0.1866264212603139,-2.007769852500666
1738165868273038,0.0,0.0,-17.0,0.5831022415305133,-0.1853853057437111,-2.006447823260349
1738165868273038,0.0,0.0,-17.0,0.5830909598262213,-0.18407617061377018,-2.0049550570756334
1738165868394773,0.0,0.0,-17.0,0.5839343916904656,-0.1835371491288657,-2.004366610437083
1738165868394773,0.0,0.0,-17.0,0.5827863141442289,-0.18098792458269855,-2.000682932000195
1738165868525771,0.0,0.0,-17.0,0.5821058479349891,-0.18047627620229617,-2.0000615971827167
1738165868525771,0.0,0.0,-17.0,0.5799109329130998,-0.1800396160830569,-2.000033526158623
1738165868525771,0.0,0.0,-17.0,0.5789235314879385,-0.17995879720994887,-2.000197676257433
1738165868646993,0.0,0.0,-17.0,0.5773744771472238,-0.1800645006261033,-2.0010684576609017
1738165868646993,0.0,0.0,-17.0,0.577922392271851,-0.18000526188245555,-2.001683593210749
1738165868772772,0.0,0.0,-17.0,0.5783623032487308,-0.18001479339917792,-2.0020189353086586
1738165868772772,0.0,0.0,-17.0,0.5780603090304798,-0.18016112992175026,-2.0024445501250026
1738165868772772,0.0,0.0,-17.0,0.5780553984684609,-0.18017705359494057,-2.002871005985536
1738165868895438,0.0,0.0,-17.0,0.5781537550422126,-0.17990176542944647,-2.0034491562272443
1738165868895438,0.0,0.0,-17.0,0.5782555344089947,-0.17985245891201257,-2.0035698334312437
1738165869023783,0.0,0.0,-17.0,0.5784381848279903,-0.17994178303559524,-2.003905662139724
1738165869023783,0.0,0.0,-17.0,0.5768332285866845,-0.18027430810173856,-2.006452728016885
1738165869023783,0.0,0.0,-17.0,0.5778711570082076,-0.1794205813851458,-2.0038963470053996
1738165869145943,0.0,0.0,-17.0,0.5783996741007902,-0.17892967426507733,-2.0056194594896986
1738165869145943,0.0,0.0,-17.0,0.5786901300954105,-0.1790482296938233,-2.005760315567552
1738165869272786,0.0,0.0,-17.0,0.5783124056847865,-0.1789507967775605,-2.0063030296979885
1738165869272786,0.0,0.0,-17.0,0.5786045537558635,-0.178905695743957,-2.006572355421234
1738165869272786,0.0,0.0,-17.0,0.577996971104306,-0.179210008312464,-2.0075023257067204
1738165869395790,0.0,0.0,-17.0,0.5780368238761626,-0.17917278144998874,-2.0076447731912657
1738165869395790,0.0,0.0,-17.0,0.5783304141759161,-0.17914981259762303,-2.00789506305113
1738165869521795,0.0,0.0,-17.0,0.5781794483563644,-0.1790895218343073,-2.00840207091302
1738165869521795,0.0,0.0,-17.0,0.5784210292827796,-0.1790900555585445,-2.0086158824645146
1738165869521795,0.0,0.0,-17.0,0.5782745387181115,-0.17897812588082,-2.008830295377173
1738165869650784,0.0,0.0,-17.0,0.578350629493262,-0.17909268026117164,-2.009090261981982
1738165869650784,0.0,0.0,-17.0,0.5783376033955325,-0.1791830683382202,-2.0094716998881044
1738165869772784,0.0,0.0,-17.0,0.57831254804357,-0.1792122362105515,-2.0097352927194083
1738165869772784,0.0,0.0,-17.0,0.5784873746143535,-0.17926219810762117,-2.009761317812647
1738165869772784,0.0,0.0,-17.0,0.5784327747597932,-0.17926769319718205,-2.010081759954559
1738165869895784,0.0,0.0,-17.0,0.5785302301011012,-0.1792899529001227,-2.0101632265186007
1738165869895784,0.0,0.0,-17.0,0.5784462999661188,-0.17931382038390453,-2.0103711077673676
1738165870023148,0.0,0.0,-17.0,0.578523039977233,-0.17931663792395414,-2.010506832038299
1738165870023148,0.0,0.0,-17.0,0.5784284324820389,-0.1793907491019478,-2.010596899577898
1738165870023148,0.0,0.0,-17.0,0.5784154769068186,-0.179401931708776,-2.010787398361405
1738165870146806,0.0,0.0,-17.0,0.5784650218961873,-0.17943555934022645,-2.0107905857927
1738165870146806,0.0,0.0,-17.0,0.5783882136092269,-0.17946478002272215,-2.0109160290029995
1738165870272804,0.0,0.0,-17.0,0.578521260248815,-0.1794773838256576,-2.0109280870425352
1738165870272804,0.0,0.0,-17.0,0.5784638829129147,-0.17951915181775116,-2.011014811184913
1738165870272804,0.0,0.0,-17.0,0.578541264515277,-0.17953212927140336,-2.011004819262561
1738165870397064,0.0,0.0,-17.0,0.578520121223713,-0.17954755380930054,-2.0110566327757975
1738165870397064,0.0,0.0,-17.0,0.5784812524998654,-0.17958937008208006,-2.011054235121726
1738165870522801,0.0,0.0,-17.0,0.5785159210759719,-0.17960014397135668,-2.011082010416309
1738165870522801,0.0,0.0,-17.0,0.5784337001648404,-0.1796536338525894,-2.0110917995987374
1738165870522801,0.0,0.0,-17.0,0.5784818219978551,-0.1796668172027243,-2.011062730003856
1738165870651824,0.0,0.0,-17.0,0.5784846694909803,-0.17968388092317766,-2.0111067506623606
1738165870651824,0.0,0.0,-17.0,0.5784796151943248,-0.1797150424299059,-2.011057152240687
1738165870774800,0.0,0.0,-17.0,0.578486377989397,-0.17974271207941073,-2.011047143768061
1738165870774800,0.0,0.0,-17.0,0.578526029925632,-0.1797613130704883,-2.01103781807915
1738165870774800,0.0,0.0,-17.0,0.578539911905392,-0.17981587946076164,-2.0109826682086767
1738165870895801,0.0,0.0,-17.0,0.5785392711958636,-0.17984507569495975,-2.0109826224768965
1738165870895801,0.0,0.0,-17.0,0.5785705950866592,-0.1798413011559305,-2.010896244916482
1738165871022819,0.0,0.0,-17.0,0.578510510733148,-0.17986046084456875,-2.0108484784282226
1738165871022819,0.0,0.0,-17.0,0.5785551466331568,-0.17986814341993645,-2.01077703727893
1738165871022819,0.0,0.0,-17.0,0.5784640964722138,-0.17989591269486366,-2.01070006200191
1738165871145818,0.0,0.0,-17.0,0.578589532113274,-0.17997593818052954,-2.010660697407176
1738165871145818,0.0,0.0,-17.0,0.5786093236921614,-0.17994241216186044,-2.010598728597844
1738165871273095,0.0,0.0,-17.0,0.5786424288834366,-0.1801053052772384,-2.0105463063885813
1738165871273095,0.0,0.0,-17.0,0.5785819857512884,-0.1801000563993506,-2.010376070513234
1738165871273095,0.0,0.0,-17.0,0.5785939460403552,-0.18007321230837656,-2.0100940692631326
1738165871395816,0.0,0.0,-17.0,0.578572446063895,-0.18011073803980993,-2.0099986055192485
1738165871395816,0.0,0.0,-17.0,0.5786713342165161,-0.1801225672344075,-2.0098706878054324
1738165871522819,0.0,0.0,-17.0,0.5786793793940033,-0.18013997719105937,-2.0097199636197516
1738165871522819,0.0,0.0,-17.0,0.5787082142270501,-0.1801358990272052,-2.0095756961593354
1738165871522819,0.0,0.0,-17.0,0.5786874958105982,-0.18017945576093303,-2.009469083820813
1738165871645818,0.0,0.0,-17.0,0.5786620787548954,-0.1802076746138289,-2.0092416124563113
1738165871645818,0.0,0.0,-17.0,0.578685217513876,-0.18022010876897232,-2.0091299474199533
1738165871645818,0.0,0.0,-17.0,0.5786719749813148,-0.180227716941678,-2.009031549430964
1738165871775817,0.0,0.0,-17.0,0.5786949714955364,-0.18025075743141736,-2.0088460930580796
1738165871775817,0.0,0.0,-17.0,0.5786963954396641,-0.18026212640736955,-2.008713763940532
1738165871897823,0.0,0.0,-17.0,0.5786965378341498,-0.18029502234398187,-2.0085753650147766
1738165871897823,0.0,0.0,-17.0,0.5786734701002217,-0.1803195578827703,-2.0084370451545954
1738165871897823,0.0,0.0,-17.0,0.5786713342165161,-0.1803128135185342,-2.0083400102781908
1738165872022356,0.0,0.0,-17.0,0.5786715478047525,-0.1803283483071441,-2.008142770450005
1738165872022356,0.0,0.0,-17.0,0.5786674184374624,-0.18031842733629072,-2.0080137869294985
1738165872147835,0.0,0.0,-17.0,0.578655386379046,-0.18030273315265577,-2.0078508578092884
1738165872147835,0.0,0.0,-17.0,0.5786266949290693,-0.18031838630316765,-2.0077080914875207
1738165872271833,0.0,0.0,-17.0,0.57862299284566,-0.18032024935962096,-2.0076001793362392
1738165872271833,0.0,0.0,-17.0,0.5785957258532621,-0.18032992781822546,-2.0074744092579904
1738165872271833,0.0,0.0,-17.0,0.5785657540798526,-0.18029847401164997,-2.00735500044521
1738165872398914,0.0,0.0,-17.0,0.5785681033900677,-0.18027800783540165,-2.0072396910040213
1738165872398914,0.0,0.0,-17.0,0.5785021816901135,-0.18025878429333891,-2.0071167179137466
1738165872520835,0.0,0.0,-17.0,0.5784714286928794,-0.18023283323490039,-2.0070095028826325
1738165872520835,0.0,0.0,-17.0,0.5783860781233823,-0.1801641813453358,-2.0068669533367176
1738165872520835,0.0,0.0,-17.0,0.5783556833642823,-0.18013318547881546,-2.0067368439791173
1738165872648027,0.0,0.0,-17.0,0.5782943974053479,-0.1800927667314605,-2.0066052809715
1738165872648027,0.0,0.0,-17.0,0.5782406585412398,-0.18006150834916354,-2.006492961861404
1738165872773270,0.0,0.0,-17.0,0.5781999463785268,-0.18004582015506085,-2.006332896681678
1738165872773270,0.0,0.0,-17.0,0.5781337558354412,-0.18004003653286887,-2.0062384644482396
1738165872773270,0.0,0.0,-17.0,0.5780635827472321,-0.1800198081629306,-2.006085717886235
1738165872899831,0.0,0.0,-17.0,0.5780477835700659,-0.17998570711543962,-2.0059089459209174
1738165872899831,0.0,0.0,-17.0,0.578016755029404,-0.17996696992368433,-2.005743088213847
1738165873022856,0.0,0.0,-17.0,0.5779897123181144,-0.17994776747977861,-2.0055993099849183
1738165873022856,0.0,0.0,-17.0,0.5779970422690467,-0.17993605602345936,-2.005442516603705
1738165873022856,0.0,0.0,-17.0,0.577984873146414,-0.1799080408919274,-2.0052915193979786
1738165873145853,0.0,0.0,-17.0,0.5779622431050268,-0.17986954283470208,-2.005164270293047
1738165873145853,0.0,0.0,-17.0,0.5779255233712493,-0.17985414264442104,-2.005014263516323
1738165873271855,0.0,0.0,-17.0,0.5779279428615273,-0.1798652493628041,-2.004884754842016
1738165873271855,0.0,0.0,-17.0,0.5779253098869962,-0.17985615394336593,-2.0047418806134307
1738165873271855,0.0,0.0,-17.0,0.5779222499493031,-0.17985405671751692,-2.004591183462488
1738165873398853,0.0,0.0,-17.0,0.577921253691837,-0.17986138584579264,-2.0044610844653756
1738165873398853,0.0,0.0,-17.0,0.5778890179960178,-0.17983337773077537,-2.004260488533538
1738165873521854,0.0,0.0,-17.0,0.5778870966845542,-0.17982617767735137,-2.0041224201543026
1738165873521854,0.0,0.0,-17.0,0.5778426937125443,-0.17981816234712994,-2.0039539348387727
1738165873521854,0.0,0.0,-17.0,0.5778267544977317,-0.1798102835086387,-2.003821700593359
1738165873647854,0.0,0.0,-17.0,0.57779786509312,-0.17980775768058654,-2.0036946827827395
1738165873647854,0.0,0.0,-17.0,0.5775623584716395,-0.1800825920497069,-2.0036987019282946
1738165873770001,0.0,0.0,-17.0,0.5778545059161142,-0.1802183061742017,-2.0036813816203476
1738165873770001,0.0,0.0,-17.0,0.5781589506083878,-0.17958740925424407,-2.003033541356572
1738165873770001,0.0,0.0,-17.0,0.5782995934484385,-0.1796845523907934,-2.002967496293856
1738165873900856,0.0,0.0,-17.0,0.5781709075947208,-0.179714693150897,-2.0028701855276245
1738165873900856,0.0,0.0,-17.0,0.5780413073778338,-0.17976496889034987,-2.002619004467883
1738165874021875,0.0,0.0,-17.0,0.5778530115961776,-0.17992373918841292,-2.002764177260109
1738165874021875,0.0,0.0,-17.0,0.5775348969109991,-0.18024658799779064,-2.0030114695007155
1738165874021875,0.0,0.0,-17.0,0.5777452109278318,-0.18030910894473134,-2.0028413156400813
1738165874147873,0.0,0.0,-17.0,0.5776283109110543,-0.18102316691171086,-2.0029976136535583
1738165874147873,0.0,0.0,-17.0,0.5780166126980958,-0.18088231040142938,-2.001768902073666
1738165874270238,0.0,0.0,-17.0,0.577625963040922,-0.18065452633432705,-1.9998933848915752
1738165874270238,0.0,0.0,-17.0,0.5774857376760741,-0.18122774007849768,-1.99922760903954
1738165874270238,0.0,0.0,-17.0,0.577932212559567,-0.18082168220978156,-1.9983276404713926
1738165874398876,0.0,0.0,-17.0,0.577993341706914,-0.1809825873474769,-1.997160471485337
1738165874398876,0.0,0.0,-17.0,0.5776266745163402,-0.18081700780966153,-1.9945676022023697
1738165874528168,0.0,0.0,-17.0,0.5782815141416473,-0.18007942881312153,-1.992478043631938
1738165874528168,0.0,0.0,-17.0,0.5784099957349077,-0.17992636559156225,-1.9923850240106433
1738165874528168,0.0,0.0,-17.0,0.5786291155269081,-0.17934308440283583,-1.9937361206624757
1738165874651233,0.0,0.0,-17.0,0.5783708450773896,-0.17911513840528995,-1.9945198009302867
1738165874651233,0.0,0.0,-17.0,0.5782819412094261,-0.17917512681441491,-1.9939282893740786
1738165874768881,0.0,0.0,-17.0,0.5775887533363828,-0.1782327334764613,-1.9914560049298233
1738165874768881,0.0,0.0,-17.0,0.5775912434414001,-0.17741714852097634,-1.9914258712439503
1738165874768881,0.0,0.0,-17.0,0.5780874953251403,-0.17759831142811663,-1.992126126018847
1738165874903874,0.0,0.0,-17.0,0.5776623198571398,-0.1780593873468708,-1.9921860625282042
1738165874903874,0.0,0.0,-17.0,0.577725430505779,-0.17809692030206925,-1.9919009288975558
1738165875022970,0.0,0.0,-17.0,0.5775353237708759,-0.17775732376916864,-1.9918545866935486
1738165875022970,0.0,0.0,-17.0,0.5776427539487797,-0.1779390231882971,-1.9919544047602726
1738165875022970,0.0,0.0,-17.0,0.5781275639631228,-0.17864341934791553,-1.992206405686862
1738165875148934,0.0,0.0,-17.0,0.5788140177988509,-0.17967585187980203,-1.9947295797774447
1738165875148934,0.0,0.0,-17.0,0.5791868806299112,-0.1818270682441086,-1.9987506548786318
1738165875270895,0.0,0.0,-17.0,0.5801876366132108,-0.18353388399795145,-2.0027738982269234
1738165875270895,0.0,0.0,-17.0,0.5817542433120055,-0.1884360072176622,-2.0038772528671807
1738165875270895,0.0,0.0,-17.0,0.5829250285057004,-0.1953425683032453,-2.0027848317704886
1738165875397898,0.0,0.0,-17.0,0.5852154731843286,-0.20289237954870679,-2.0010796710376426
1738165875397898,0.0,0.0,-17.0,0.5891898645850818,-0.2073717163624094,-1.9990574314415173
1738165875522921,0.0,0.0,-17.0,0.5905304731785278,-0.20845451505193516,-1.9963879406103517
1738165875522921,0.0,0.0,-17.0,0.5914098277749724,-0.2083613251622255,-1.990736999769704
1738165875522921,0.0,0.0,-17.0,0.5915537206760816,-0.20840295174276885,-1.9866443992570146
1738165875645894,0.0,0.0,-17.0,0.5927911709409617,-0.2125517000500947,-1.9858422381534995
1738165875645894,0.0,0.0,-17.0,0.5929317477173576,-0.21407698972308759,-1.9845228013789196
1738165875770896,0.0,0.0,-17.0,0.5932730395964084,-0.2149374932859755,-1.984997245494308
1738165875770896,0.0,0.0,-17.0,0.5935227327051791,-0.21503288448028496,-1.9831972950124857
1738165875770896,0.0,0.0,-17.0,0.5956998590259653,-0.21620044994500612,-1.979876957549518
1738165875899895,0.0,0.0,-17.0,0.5963289067181213,-0.22096507886704253,-1.9806249426538323
1738165875899895,0.0,0.0,-17.0,0.5966904389477788,-0.222508559010175,-1.9820033106207438
1738165876021914,0.0,0.0,-17.0,0.6011921856820193,-0.23660213799080262,-1.991470018593444
1738165876021914,0.0,0.0,-17.0,0.5885090825008396,-0.24328311866447994,-1.9892582024586047
1738165876021914,0.0,0.0,-17.0,0.5963387039506475,-0.24808010607482037,-1.9960042332296688
1738165876148039,0.0,0.0,-17.0,0.589691367145041,-0.2460996453253356,-1.992640688963969
1738165876148039,0.0,0.0,-17.0,0.5893408569540118,-0.24256888083703687,-1.987198845305474
1738165876148039,0.0,0.0,-17.0,0.5891874270365102,-0.24102308360579097,-1.9831419406294617
1738165876271123,0.0,0.0,-17.0,0.588185500545295,-0.2376491281664169,-1.9788618626917331
1738165876271123,0.0,0.0,-17.0,0.5882176693178391,-0.2397749092824579,-1.9781484756833447
1738165876397912,0.0,0.0,-17.0,0.5863418560344881,-0.2458333434405892,-1.9837035609929237
1738165876397912,0.0,0.0,-17.0,0.5853263073482811,-0.2508016365862337,-1.9860943430649582
1738165876522914,0.0,0.0,-17.0,0.5844008415191375,-0.25296628266801513,-1.9825123298054015
1738165876522914,0.0,0.0,-17.0,0.5836682196076226,-0.2487192332515006,-1.9781125723545667
1738165876522914,0.0,0.0,-17.0,0.5824842277268351,-0.24551194054413084,-1.9735112873967346
1738165876647914,0.0,0.0,-17.0,0.5832955430142261,-0.24211697311385602,-1.9697720324015053
1738165876647914,0.0,0.0,-17.0,0.5836180764827226,-0.23589857011260196,-1.9647353847666926
1738165876769913,0.0,0.0,-17.0,0.5824500397860046,-0.23278816435695154,-1.958330451892589
1738165876769913,0.0,0.0,-17.0,0.5803748658533412,-0.22880517003497175,-1.952024225474136
1738165876769913,0.0,0.0,-17.0,0.5790475805185925,-0.2223600372310485,-1.947197769251822
1738165876897913,0.0,0.0,-17.0,0.5776483035265275,-0.22086256136749627,-1.9447133285380511
1738165876897913,0.0,0.0,-17.0,0.5752915367325442,-0.218155356730387,-1.9441677656690246
1738165877025932,0.0,0.0,-17.0,0.5765890534745594,-0.21145540250453032,-1.937014095731821
1738165877025932,0.0,0.0,-17.0,0.5752688042185606,-0.20380968798277402,-1.9321851908325416
1738165877025932,0.0,0.0,-17.0,0.5721659717171513,-0.20354418657557533,-1.9329113320773805
1738165877146934,0.0,0.0,-17.0,0.5711583660144887,-0.2018357368825946,-1.9315365023937987
1738165877146934,0.0,0.0,-17.0,0.5746433652431335,-0.1918670938893016,-1.921821370156863
1738165877271933,0.0,0.0,-17.0,0.5772534798049445,-0.1828971795612716,-1.9120900232326772
1738165877271933,0.0,0.0,-17.0,0.5747410068028241,-0.1916853731190245,-1.91614775105582
1738165877271933,0.0,0.0,-17.0,0.5689006552722187,-0.21192511433467703,-1.930400884565646
1738165877396222,0.0,0.0,-17.0,0.5712769031529664,-0.20811675056304868,-1.9316487499142776
1738165877396222,0.0,0.0,-17.0,0.5735798624392561,-0.19429108703228426,-1.9233143799837673
1738165877522934,0.0,0.0,-17.0,0.574119543765611,-0.19483973962390663,-1.9250180728392308
1738165877522934,0.0,0.0,-17.0,0.575171839601432,-0.19589864539555907,-1.9185705696513204
1738165877522934,0.0,0.0,-17.0,0.576312430151265,-0.18804674266431123,-1.9133373090653676
1738165877647500,0.0,0.0,-17.0,0.5759008930267425,-0.1881486733469927,-1.9145119671323405
1738165877647500,0.0,0.0,-17.0,0.5759261933446247,-0.18880537485265272,-1.9156055770765916
1738165877772949,0.0,0.0,-17.0,0.5760551177125514,-0.18571935169904083,-1.9168860762439062
1738165877772949,0.0,0.0,-17.0,0.5755033914623832,-0.181023192975452,-1.9151029691518113
1738165877772949,0.0,0.0,-17.0,0.5792842415649767,-0.1714883172023303,-1.9077578311539003
1738165877897937,0.0,0.0,-17.0,0.5794118101559086,-0.16811956701800307,-1.907326184927361
1738165877897937,0.0,0.0,-17.0,0.5771658498232113,-0.17180202818802492,-1.912063261939297
1738165878028188,0.0,0.0,-17.0,0.5781130451882004,-0.17403036643459405,-1.9126021654373322
1738165878028188,0.0,0.0,-17.0,0.5770823499311428,-0.16816760270682707,-1.9080677723628054
1738165878028188,0.0,0.0,-17.0,0.5812599368175396,-0.15990514899882025,-1.9007539433413738
1738165878147956,0.0,0.0,-17.0,0.5845267676223805,-0.1601741594218797,-1.9027554605009471
1738165878147956,0.0,0.0,-17.0,0.5826165615869776,-0.15629820193592958,-1.9003707776193397
1738165878273954,0.0,0.0,-17.0,0.5834767275217112,-0.15664338746364154,-1.8999786978521787
1738165878273954,0.0,0.0,-17.0,0.5834490878064272,-0.15550653658797048,-1.8982511422099682
1738165878273954,0.0,0.0,-17.0,0.5835202235988372,-0.15437907115946095,-1.897272880810352
1738165878398094,0.0,0.0,-17.0,0.5839080295649922,-0.15497690257161156,-1.896888265647194
1738165878398094,0.0,0.0,-17.0,0.5838019427265407,-0.1531587774914414,-1.8964003019617015
1738165878523955,0.0,0.0,-17.0,0.5841418755069144,-0.1537773283678711,-1.896168728163246
1738165878523955,0.0,0.0,-17.0,0.5836772198314479,-0.15382785345978725,-1.8962658308675004
1738165878523955,0.0,0.0,-17.0,0.5841270134609953,-0.1536416313530504,-1.8960887959793804
1738165878647954,0.0,0.0,-17.0,0.5837402228962739,-0.15385594960783552,-1.8964924459097727
1738165878647954,0.0,0.0,-17.0,0.584092645539058,-0.1536330788617596,-1.8964272075117488
1738165878773954,0.0,0.0,-17.0,0.5839452510193293,-0.15388025567103789,-1.8965396330838709
1738165878773954,0.0,0.0,-17.0,0.5841877487042291,-0.15373380401674788,-1.8964975210165118
1738165878773954,0.0,0.0,-17.0,0.5840821424005996,-0.15377821417472617,-1.8965531900272175
1738165878897957,0.0,0.0,-17.0,0.5841817465245358,-0.1537873011673739,-1.8965181136380818
1738165878897957,0.0,0.0,-17.0,0.5841806032549138,-0.153778781924426,-1.8965839539648024
1738165879024087,0.0,0.0,-17.0,0.5842499869953751,-0.15384537227889863,-1.8966546417160246
1738165879024087,0.0,0.0,-17.0,0.5842291929759883,-0.1537328096741342,-1.8967332232593297
1738165879024087,0.0,0.0,-17.0,0.5842875027020691,-0.15377610327703461,-1.896706992011674
1738165879149976,0.0,0.0,-17.0,0.5842189032577079,-0.15375632734037178,-1.896826203563669
1738165879149976,0.0,0.0,-17.0,0.5843123707691799,-0.1537790298310198,-1.8968102649838623
1738165879273974,0.0,0.0,-17.0,0.5842845014112826,-0.15371871683930974,-1.896798614686514
1738165879273974,0.0,0.0,-17.0,0.5842700667150059,-0.15375907580731643,-1.896804293194598
1738165879273974,0.0,0.0,-17.0,0.5842521307249715,-0.15376435965199647,-1.8969012964891052
1738165879398974,0.0,0.0,-17.0,0.5844148486715546,-0.15368312911954804,-1.8967686073530254
1738165879398974,0.0,0.0,-17.0,0.5841926076290459,-0.15391186435227766,-1.8968044132761905
1738165879398974,0.0,0.0,-17.0,0.5841671699015875,-0.15382201901748163,-1.8968577817421257
1738165879522975,0.0,0.0,-17.0,0.5842006105980667,-0.1538091110785279,-1.896925054795529
1738165879522975,0.0,0.0,-17.0,0.5842160450150544,-0.1538109455805284,-1.897272905754601
1738165879644974,0.0,0.0,-17.0,0.5843730419938784,-0.1537206906522357,-1.8974118163706055
1738165879644974,0.0,0.0,-17.0,0.5844798835794508,-0.1538580638820376,-1.8974055835664805
1738165879770974,0.0,0.0,-17.0,0.5845007525165207,-0.15385898932766046,-1.8974019668013538
1738165879770974,0.0,0.0,-17.0,0.5845709371518628,-0.1539172691968302,-1.8972027294104445
1738165879770974,0.0,0.0,-17.0,0.5844750237313587,-0.15384862442123223,-1.8971728277410336
1738165879895975,0.0,0.0,-17.0,0.5845649334506872,-0.1538306142426211,-1.8970412202556117
1738165879895975,0.0,0.0,-17.0,0.5843929804190259,-0.1537763815985593,-1.8970913108051215
1738165879895975,0.0,0.0,-17.0,0.5842909327559763,-0.1537747788679395,-1.8971862756401627
1738165880020999,0.0,0.0,-17.0,0.5844265690416763,-0.1535761578763159,-1.8973969828613142
1738165880020999,0.0,0.0,-17.0,0.5847497726175273,-0.15348055318801818,-1.8971791830165003
1738165880144996,0.0,0.0,-17.0,0.5844363599083299,-0.1539068626112204,-1.8970689532654363
1738165880144996,0.0,0.0,-17.0,0.5856986267483849,-0.1520403186606385,-1.8953260727677306
1738165880274033,0.0,0.0,-17.0,0.5868987420694777,-0.1505133370799745,-1.8939390780898355
1738165880274033,0.0,0.0,-17.0,0.5854769118478569,-0.15218562457407664,-1.8945484214236912
1738165880274033,0.0,0.0,-17.0,0.5864521290118014,-0.15134854915903648,-1.8944712828103758
1738165880396000,0.0,0.0,-17.0,0.5862763830399563,-0.1519875035562527,-1.8949218838366495
1738165880396000,0.0,0.0,-17.0,0.5862182826138512,-0.15163341111987208,-1.8948141129918084
1738165880396000,0.0,0.0,-17.0,0.5860738283387285,-0.15136495622673496,-1.8949379441066454
1738165880521997,0.0,0.0,-17.0,0.5862888334229533,-0.15149870296072715,-1.8947864558590448
1738165880521997,0.0,0.0,-17.0,0.5863374910795993,-0.15130471057115935,-1.8950065423702638
1738165880646180,0.0,0.0,-17.0,0.5864384607349815,-0.15142328368923733,-1.8949374605083669
1738165880646180,0.0,0.0,-17.0,0.5863138060532348,-0.1514705645118225,-1.8952964804350378
1738165880771841,0.0,0.0,-17.0,0.5865630541744457,-0.1512489234872685,-1.895204733971421
1738165880771841,0.0,0.0,-17.0,0.5862665802246378,-0.15158879016135374,-1.8952609367466953
1738165880771841,0.0,0.0,-17.0,0.5862221463657056,-0.15133198739582934,-1.8953891945361097
1738165880898999,0.0,0.0,-17.0,0.5864635789727457,-0.1516570844180166,-1.8961139067185906
1738165880898999,0.0,0.0,-17.0,0.5853832292187835,-0.15214748905012623,-1.8967012125991949
1738165881023161,0.0,0.0,-17.0,0.5852141146225017,-0.1525796283751322,-1.896767473267777
1738165881023161,0.0,0.0,-17.0,0.5852711037664201,-0.15206758269832968,-1.8969141151358409
1738165881023161,0.0,0.0,-17.0,0.5855103815566245,-0.15227161968299713,-1.896813036656476
1738165881148021,0.0,0.0,-17.0,0.5853182984132199,-0.1523975455679218,-1.8969244071654172
1738165881148021,0.0,0.0,-17.0,0.5856203075997936,-0.15210312373432847,-1.8967679984641304
1738165881276163,0.0,0.0,-17.0,0.5853604888169205,-0.1522347289740931,-1.8969387752896631
1738165881276163,0.0,0.0,-17.0,0.5856939775529131,-0.15177765597394335,-1.8965773501644152
1738165881276163,0.0,0.0,-17.0,0.5855959186317312,-0.151898526740104,-1.89669505964682
1738165881399158,0.0,0.0,-17.0,0.5857419722454059,-0.15189536786299643,-1.8966416031952251
1738165881399158,0.0,0.0,-17.0,0.5856090070904716,-0.15189429650671601,-1.8965488729556754
1738165881521021,0.0,0.0,-17.0,0.5856193062854211,-0.15205201466186047,-1.8967037408728005
1738165881521021,0.0,0.0,-17.0,0.5855808992289032,-0.15175290950978604,-1.896707027126797
1738165881521021,0.0,0.0,-17.0,0.5856213089148309,-0.1519096520271859,-1.896736880251343
1738165881646022,0.0,0.0,-17.0,0.5855750345503165,-0.15183504783424903,-1.8968084485721322
1738165881646022,0.0,0.0,-17.0,0.5855324090352001,-0.15186071380052213,-1.8969644472416662
1738165881773331,0.0,0.0,-17.0,0.585807922735784,-0.15219276265974327,-1.8971436625659541
1738165881773331,0.0,0.0,-17.0,0.5864006052654522,-0.1520876873884388,-1.89735918287809
1738165881773331,0.0,0.0,-17.0,0.5858577093992846,-0.15221830904892272,-1.898420648581569
1738165881898021,0.0,0.0,-17.0,0.5856027846942803,-0.15255385206914782,-1.8985519234220107
1738165881898021,0.0,0.0,-17.0,0.5855615887879424,-0.1523753347479015,-1.898424131141221
1738165882023024,0.0,0.0,-17.0,0.585865291995234,-0.15227399715703274,-1.8983857065084
1738165882023024,0.0,0.0,-17.0,0.5855135998369964,-0.15248827218633026,-1.898708930017362
1738165882023024,0.0,0.0,-17.0,0.5856467711492341,-0.15214719197436247,-1.8985714385324668
1738165882146043,0.0,0.0,-17.0,0.585668156897462,-0.152576110800007,-1.8985047073358994
1738165882146043,0.0,0.0,-17.0,0.5857496973163296,-0.152263171247247,-1.8983620967219206
1738165882276043,0.0,0.0,-17.0,0.5856573566990704,-0.15229093766617174,-1.898436944329996
1738165882276043,0.0,0.0,-17.0,0.5858109270567797,-0.15231481260500288,-1.8983679181029052
1738165882276043,0.0,0.0,-17.0,0.5858715870095357,-0.15207277738949965,-1.8981295196703227
1738165882397042,0.0,0.0,-17.0,0.5857288111046425,-0.15205451767975978,-1.898402120522181
1738165882397042,0.0,0.0,-17.0,0.585806349046224,-0.15193882541291664,-1.8984096581831207
1738165882523041,0.0,0.0,-17.0,0.5852656693261109,-0.15200368578768206,-1.8987917657575302
1738165882523041,0.0,0.0,-17.0,0.5859834709692426,-0.1518970065069677,-1.898898152717278
1738165882523041,0.0,0.0,-17.0,0.5856760961654891,-0.15181536901339696,-1.8987774984963623
1738165882645043,0.0,0.0,-17.0,0.5857698685215064,-0.15220303353958,-1.8988707385468138
1738165882645043,0.0,0.0,-17.0,0.5858697271162095,-0.15164743447652024,-1.8988344444639165
1738165882774042,0.0,0.0,-17.0,0.5858411136620363,-0.15211619547300342,-1.8989020992815566
1738165882774042,0.0,0.0,-17.0,0.5861075259424574,-0.15158423507586033,-1.899029469845776
1738165882774042,0.0,0.0,-17.0,0.5859824694135687,-0.15196762374140205,-1.8989729160517377
1738165882898388,0.0,0.0,-17.0,0.5859069969549756,-0.1519384720085848,-1.8991597242295677
1738165882898388,0.0,0.0,-17.0,0.5861226936874165,-0.1516017819528914,-1.89916381713051
1738165883023044,0.0,0.0,-17.0,0.5858594262101205,-0.15220850813824166,-1.8992590970707857
1738165883023044,0.0,0.0,-17.0,0.5861018738501458,-0.15162279288880975,-1.899401560465442
1738165883023044,0.0,0.0,-17.0,0.5860205289972734,-0.1519101115011334,-1.8993430921493832
1738165883147059,0.0,0.0,-17.0,0.5861544605916401,-0.15188170503351214,-1.8992608616861546
1738165883147059,0.0,0.0,-17.0,0.5858883261527695,-0.15186920507218232,-1.8993593735976875
1738165883273271,0.0,0.0,-17.0,0.5859089284304767,-0.15203418436269053,-1.8991915413469689
1738165883273271,0.0,0.0,-17.0,0.5859642984476735,-0.1518804502935325,-1.8991922603763849
1738165883273271,0.0,0.0,-17.0,0.5859004156496362,-0.1522338761690879,-1.8990742527730424
1738165883401087,0.0,0.0,-17.0,0.5858753068030742,-0.1519726213975183,-1.8989775053460216
1738165883401087,0.0,0.0,-17.0,0.5856306783949037,-0.15215202882034762,-1.8992257560834653
1738165883523064,0.0,0.0,-17.0,0.5857587099491124,-0.15213373174175057,-1.8992937516702282
1738165883523064,0.0,0.0,-17.0,0.5857112869379677,-0.1522003549311288,-1.8993524207918138
1738165883523064,0.0,0.0,-17.0,0.5857878225517588,-0.15227979337243652,-1.8994358033442567
1738165883649339,0.0,0.0,-17.0,0.5857672934590065,-0.15219786245918865,-1.8995331827216106
1738165883649339,0.0,0.0,-17.0,0.5857369652761383,-0.15253519472023286,-1.8996513635419585
1738165883771060,0.0,0.0,-17.0,0.5857625009932887,-0.15251167500389035,-1.8998254103502936
1738165883771060,0.0,0.0,-17.0,0.5859177989423511,-0.1525641604485615,-1.8999042986038561
1738165883771060,0.0,0.0,-17.0,0.5857690101668509,-0.15275023314650527,-0.034709657690481475
1738165883898061,0.0,0.0,-17.0,0.5857471938167867,-0.15283474421110899,-0.0347426690429021
1738165883898061,0.0,0.0,-17.0,0.5858530597130922,-0.1529339218002606,-0.03480823525966285
1738165884023061,0.0,0.0,-17.0,0.5859074261715397,-0.15294221670641214,-0.03515672650631315
1738165884023061,0.0,0.0,-17.0,0.5857569217240368,-0.15298414625218726,-0.03558530060109423
1738165884023061,0.0,0.0,-17.0,0.5862514825828213,-0.15294611611273984,-0.035664641907179696
1738165884149076,0.0,0.0,-17.0,0.5859435523372295,-0.15316043050152253,-0.036306880696487694
1738165884149076,0.0,0.0,-17.0,0.5863206753880759,-0.15299632180570247,-0.03689117330896114
1738165884273080,0.0,0.0,-17.0,0.5861857988699333,-0.15310959619891967,-0.037358405473450124
1738165884273080,0.0,0.0,-17.0,0.5864353836007735,-0.15312120951568314,-0.03737579267559614
1738165884273080,0.0,0.0,-17.0,0.5863923759415354,-0.15302564654058623,-0.03741772875173786
1738165884403076,0.0,0.0,-17.0,0.5863972419711108,-0.15322136231805786,-0.03732949725590486
1738165884403076,0.0,0.0,-17.0,0.5865072327480133,-0.15301147299654802,-0.03718681965999279
1738165884523210,0.0,0.0,-17.0,0.5863792806753659,-0.15323692759352628,-0.03706952943061542
1738165884523210,0.0,0.0,-17.0,0.586336847070933,-0.1532346614022971,-0.03704285922244182
1738165884523210,0.0,0.0,-17.0,0.5863673304499174,-0.1530953501134523,-0.036982220284752496
1738165884649110,0.0,0.0,-17.0,0.5867356843062338,-0.1532071872992531,-0.03688455797256113
1738165884649110,0.0,0.0,-17.0,0.5868572243677351,-0.1531296344402528,-0.037140755111929484
1738165884770082,0.0,0.0,-17.0,0.5868191436216226,-0.15342891248180915,-0.03782724975249095
1738165884770082,0.0,0.0,-17.0,0.5865171802608413,-0.1537509825912232,-0.03815714321788088
1738165884770082,0.0,0.0,-17.0,0.5865288454136091,-0.15382207013144916,-0.03828240832079698
1738165884899076,0.0,0.0,-17.0,0.586376561454052,-0.1539841949794065,-0.03839537506318828
1738165884899076,0.0,0.0,-17.0,0.5863489401685411,-0.15393094168001317,-0.03840023615501184
1738165885023077,0.0,0.0,-17.0,0.586350442867929,-0.15402527946556954,-0.03796773006354455
1738165885023077,0.0,0.0,-17.0,0.5861395071681206,-0.15409509607135247,-0.0376262392377402
1738165885023077,0.0,0.0,-17.0,0.5862210015493078,-0.15400483762091546,-0.03724527095998142
1738165885149113,0.0,0.0,-17.0,0.5860327626390978,-0.15411064371133226,-0.03714173959340717
1738165885149113,0.0,0.0,-17.0,0.5861241246146373,-0.1541083892350607,-0.03701353058538544
1738165885275092,0.0,0.0,-17.0,0.5853005644940178,-0.15462800363513104,-0.03717125221407212
1738165885275092,0.0,0.0,-17.0,0.5854006065493811,-0.15490158871113335,-0.0366806362235651
1738165885275092,0.0,0.0,-17.0,0.58536864099704,-0.15464889154839767,-0.03591533189228582
1738165885404092,0.0,0.0,-17.0,0.5852015301079243,-0.15493400158584278,-0.03521200897290813
1738165885404092,0.0,0.0,-17.0,0.5852792554635825,-0.15465614649495907,-0.0345691469809468
1738165885525545,0.0,0.0,-17.0,0.5853201576264986,-0.15473164166840794,-0.033958041154409466
1738165885525545,0.0,0.0,-17.0,0.5848869513368422,-0.15502147537211453,-0.03349441933261869
1738165885525545,0.0,0.0,-17.0,0.5846915880125959,-0.15499654661107826,-0.03333808790997426
1738165885651165,0.0,0.0,-17.0,0.5848542817986854,-0.15523190573142706,-0.033271472737452075
1738165885651165,0.0,0.0,-17.0,0.5848687935631879,-0.1553896521325108,-0.03351240497861248
1738165885773091,0.0,0.0,-17.0,0.5850503096305579,-0.15549907242447616,-0.03363613223136394
1738165885773091,0.0,0.0,-17.0,0.585043803557502,-0.15538803049338784,-0.0339131881512479
1738165885773091,0.0,0.0,-17.0,0.5850406577739926,-0.15536709877932003,-0.0341118235262844
1738165885898100,0.0,0.0,-17.0,0.5849597275971877,-0.1553786309009095,-0.03425250648726184
1738165885898100,0.0,0.0,-17.0,0.5849902546366583,-0.15526702064764136,-0.03442675169342612
1738165886017784,0.0,0.0,-17.0,0.5849507197362572,-0.15526691257351538,-0.03459606566563775
1738165886017784,0.0,0.0,-17.0,0.5849165475460911,-0.15531033528682153,-0.03473354172964221
1738165886017784,0.0,0.0,-17.0,0.5849374225159537,-0.15525576893296633,-0.03492072245990959
1738165886146185,0.0,0.0,-17.0,0.5849437136593518,-0.15522059017744322,-0.035062987328038496
1738165886146185,0.0,0.0,-17.0,0.5849417119290639,-0.1552557288400791,-0.03527904166149699
1738165886273764,0.0,0.0,-17.0,0.5849536508597095,-0.15522195907128425,-0.03542034382727916
1738165886273764,0.0,0.0,-17.0,0.5847788657604067,-0.15538019412951026,-0.035630714877210166
1738165886273764,0.0,0.0,-17.0,0.5847858710726177,-0.15531178302233328,-0.035856733235189286
1738165886398110,0.0,0.0,-17.0,0.5849381374172926,-0.15528167209381008,-0.03632825129867081
1738165886398110,0.0,0.0,-17.0,0.5842018253381377,-0.15585084203094898,-0.03669780084301532
1738165886523111,0.0,0.0,-17.0,0.5848056719777298,-0.15555733827922374,-0.036577763493601624
1738165886523111,0.0,0.0,-17.0,0.5843345237021431,-0.15573365815466464,-0.03696656317968003
1738165886523111,0.0,0.0,-17.0,0.5844750951995998,-0.15546711206821076,-0.03660709215436511
1738165886646109,0.0,0.0,-17.0,0.5844026281385001,-0.1554014868476937,-0.03713117942148202
1738165886646109,0.0,0.0,-17.0,0.5843473153822196,-0.15568179198383905,-0.03723414316637733
1738165886771565,0.0,0.0,-17.0,0.5843250193395376,-0.1552737789934462,-0.037384214715498854
1738165886771565,0.0,0.0,-17.0,0.5844172784969182,-0.15556520828998888,-0.037720184512416446
1738165886771565,0.0,0.0,-17.0,0.5841619537912298,-0.15574484921862208,-0.03788264994396007
1738165886899472,0.0,0.0,-17.0,0.5841719573063772,-0.15601794183646164,-0.038253510231380766
1738165886899472,0.0,0.0,-17.0,0.5844208517766065,-0.15610595464787125,-0.03865752355007723
1738165887021107,0.0,0.0,-17.0,0.5844666619704773,-0.15607932872225858,-0.038962824581553535
1738165887021107,0.0,0.0,-17.0,0.583589719923427,-0.1567294180515299,-0.039285310568731406
1738165887021107,0.0,0.0,-17.0,0.5842146873516862,-0.15649348884109265,-0.0392289559290365
1738165887146198,0.0,0.0,-17.0,0.5838058002994861,-0.1561301390941686,-0.0395481421028851
1738165887146198,0.0,0.0,-17.0,0.5839252470529157,-0.15611674875967088,-0.03950667440635493
1738165887273139,0.0,0.0,-17.0,0.5840506334227358,-0.15591728716519873,-0.03950341427401199
1738165887273139,0.0,0.0,-17.0,0.5841007194297595,-0.156006672536043,-0.039501909124040294
1738165887273139,0.0,0.0,-17.0,0.584090716385711,-0.15578444453008444,-0.03966714615522581
1738165887398123,0.0,0.0,-17.0,0.5840201253551778,-0.15603224030055768,-0.039745896343720354
1738165887398123,0.0,0.0,-17.0,0.5837696537977648,-0.1559068338518593,-0.0402925087307789
1738165887524322,0.0,0.0,-17.0,0.5841428758421733,-0.15602106593221393,-0.04048525320620033
1738165887524322,0.0,0.0,-17.0,0.5843389543276846,-0.15598060352720447,-0.040089470272911876
1738165887524322,0.0,0.0,-17.0,0.5840468466736504,-0.15593780820884462,-0.04019440298138995
1738165887648124,0.0,0.0,-17.0,0.5843324513172337,-0.15567168105184107,-0.039984085831422995
1738165887648124,0.0,0.0,-17.0,0.5838169444543282,-0.15594192000077556,-0.04016137835438802
1738165887773190,0.0,0.0,-17.0,0.5839934045086195,-0.15582681290721237,-0.039998057650209515
1738165887773190,0.0,0.0,-17.0,0.5832463405562938,-0.15553847291628933,-0.040302532110272155
1738165887773190,0.0,0.0,-17.0,0.5842477718113179,-0.15544987651083092,-0.040302296060202775
1738165887898444,0.0,0.0,-17.0,0.5837314365972635,-0.15521848589478013,-0.04005068716704047
1738165887898444,0.0,0.0,-17.0,0.583747723435774,-0.15525628089251722,-0.03988698720119583
1738165888020124,0.0,0.0,-17.0,0.5841242268436416,-0.15518741266610672,-0.03973990300100671
1738165888020124,0.0,0.0,-17.0,0.5838290888190524,-0.15536448003893766,-0.03967600375322754
1738165888020124,0.0,0.0,-17.0,0.5839387497012403,-0.15587261673395655,-0.03953554001655831
1738165888146143,0.0,0.0,-17.0,0.583783512235929,-0.15523752894762205,-0.039754168928971316
1738165888146143,0.0,0.0,-17.0,0.5839168883309943,-0.15552326070905276,-0.039460958953569714
1738165888273142,0.0,0.0,-17.0,0.5836495764570191,-0.15594261496378012,-0.04054143521091347
1738165888273142,0.0,0.0,-17.0,0.5844174928934612,-0.1551272027046682,-0.039793905525874994
1738165888273142,0.0,0.0,-17.0,0.5839493947311472,-0.1560710892287044,-0.03990856023676114
1738165888398185,0.0,0.0,-17.0,0.5843834042250258,-0.15545243143293974,-0.039669102202098155
1738165888398185,0.0,0.0,-17.0,0.5839308195598458,-0.15547060118767572,-0.03978114610769044
1738165888525142,0.0,0.0,-17.0,0.5843011515043601,-0.15550085435794458,-0.03986887085764488
1738165888525142,0.0,0.0,-17.0,0.5838364469227284,-0.1552729302378364,-0.040053187108815516
1738165888525142,0.0,0.0,-17.0,0.5839188172627245,-0.15530436463444933,-0.04016822860207043
1738165888648145,0.0,0.0,-17.0,0.581483317784506,-0.1570014200826468,-0.04367969053021115
1738165888648145,0.0,0.0,-17.0,0.5828873323544912,-0.15743949795425186,-0.046088050379043996
1738165888774142,0.0,0.0,-17.0,0.5836903631115531,-0.15468910609076658,-0.04643467321567898
1738165888774142,0.0,0.0,-17.0,0.5839020999360751,-0.15507774838470775,-0.04582743469437104
1738165888774142,0.0,0.0,-17.0,0.5835749347240128,-0.15518519387000773,-0.04646796904964987
1738165888898295,0.0,0.0,-17.0,0.5839632548151946,-0.15491583751798838,-0.04532657257587199
1738165888898295,0.0,0.0,-17.0,0.5837395799946172,-0.15571586754108077,-0.04481428211114757
1738165889021144,0.0,0.0,-17.0,0.583919888892526,-0.15477811416692439,-0.04478784465033165
1738165889021144,0.0,0.0,-17.0,0.5836347906731982,-0.1548594430071252,-0.043818205354578435
1738165889021144,0.0,0.0,-17.0,0.5842439845686718,-0.15494406057254378,-0.04224451645586053
1738165889148170,0.0,0.0,-17.0,0.5845525687603145,-0.15379402902534234,-0.042239090963751176
1738165889148170,0.0,0.0,-17.0,0.5841921788997576,-0.15442352306672247,-0.04236131406144625
1738165889273950,0.0,0.0,-17.0,0.584244627684679,-0.15407087844169037,-0.042339958265679864
1738165889273950,0.0,0.0,-17.0,0.5845148320649229,-0.15411285311388634,-0.042360018452794385
1738165889273950,0.0,0.0,-17.0,0.5841831756127784,-0.15438498448892,-0.042381357660882225
1738165889398652,0.0,0.0,-17.0,0.5843067253962222,-0.15385912207066874,-0.04239826211839614
1738165889398652,0.0,0.0,-17.0,0.5843075114595481,-0.15417207073744815,-0.042411428775455166
1738165889521161,0.0,0.0,-17.0,0.5843171586336495,-0.15403584908169327,-0.042180207832172724
1738165889521161,0.0,0.0,-17.0,0.5844024852088734,-0.15407762301568645,-0.042233141738158994
1738165889521161,0.0,0.0,-17.0,0.5846242567826803,-0.15394491135898036,-0.042030926287501
1738165889650160,0.0,0.0,-17.0,0.5844387897682701,-0.1541953185297891,-0.04205933337978669
1738165889650160,0.0,0.0,-17.0,0.5848834484422515,-0.1540420090276238,-0.04190808735143243
1738165889774388,0.0,0.0,-17.0,0.5847018809490918,-0.1541219196079186,-0.041957638182113705
1738165889774388,0.0,0.0,-17.0,0.5846479152911886,-0.15402871428024859,-0.041991263125436745
1738165889774388,0.0,0.0,-17.0,0.5846446988558878,-0.1540040072641328,-0.042186905580928954
1738165889897359,0.0,0.0,-17.0,0.5848188965535169,-0.1542178341700633,-0.042085651780234254
1738165889897359,0.0,0.0,-17.0,0.58456343252912,-0.1539902530833799,-0.04236696384376946
1738165890023304,0.0,0.0,-17.0,0.5848494207461871,-0.1540649866311902,-0.04221968338354774
1738165890023304,0.0,0.0,-17.0,0.5847938057001778,-0.15410602011168,-0.04217768646885674
1738165890023304,0.0,0.0,-17.0,0.5850032663492829,-0.1541618779661292,-0.04217753374600574
1738165890146448,0.0,0.0,-17.0,0.5850750472632211,-0.1539216918852437,-0.04207189169465312
1738165890146448,0.0,0.0,-17.0,0.584336310243138,-0.15420754011272278,-0.04245672277952529
1738165890271182,0.0,0.0,-17.0,0.584882519104234,-0.15424453225588272,-0.042863613187382174
1738165890271182,0.0,0.0,-17.0,0.5847792946561391,-0.15429729088748792,-0.042983467421850455
1738165890271182,0.0,0.0,-17.0,0.5847211803940358,-0.1541543254790281,-0.04284861447397129
1738165890398183,0.0,0.0,-17.0,0.5847396223162313,-0.15401732029478055,-0.04320030537101832
1738165890398183,0.0,0.0,-17.0,0.5847450548633715,-0.15426114331688442,-0.04399843955645732
1738165890521178,0.0,0.0,-17.0,0.5839869029836406,-0.15460814839527973,-0.04554112509667796
1738165890521178,0.0,0.0,-17.0,0.5839456082354184,-0.1548762679641346,-0.04601567172302015
1738165890521178,0.0,0.0,-17.0,0.5839941904091358,-0.1547106456851525,-0.045822711032231365
1738165890650182,0.0,0.0,-17.0,0.5838706661467016,-0.15503114079153485,-0.04583691637444992
1738165890650182,0.0,0.0,-17.0,0.5840184820809426,-0.15470976915959325,-0.04569619224763275
1738165890773181,0.0,0.0,-17.0,0.5838862400789263,-0.15488266053570277,-0.045602813799685046
1738165890773181,0.0,0.0,-17.0,0.5840657805138589,-0.15477090865145665,-0.045266349681641865
1738165890773181,0.0,0.0,-17.0,0.5839103156931896,-0.1546948681088431,-0.04476077183743284
1738165890899428,0.0,0.0,-17.0,0.5837912272977162,-0.15489295357009286,-0.04420296308448475
1738165890899428,0.0,0.0,-17.0,0.5847721464098324,-0.15435817217128942,-0.04317667333248964
1738165891023179,0.0,0.0,-17.0,0.5845757973083792,-0.1540265278091073,-0.04309699186527075
1738165891023179,0.0,0.0,-17.0,0.5848757278053126,-0.1541023570061492,-0.04274431110913656
1738165891023179,0.0,0.0,-17.0,0.5847983091559834,-0.15377432935153423,-0.042721668390709115
1738165891146212,0.0,0.0,-17.0,0.5847499155800043,-0.15397344219159603,-0.042542456796964716
1738165891146212,0.0,0.0,-17.0,0.5847303298466751,-0.15383360221407907,-0.04243288196050283
1738165891271196,0.0,0.0,-17.0,0.5847965220687393,-0.1536084853611115,-0.04233716416148329
1738165891271196,0.0,0.0,-17.0,0.5847083140700127,-0.15387708238449174,-0.042202521270127795
1738165891271196,0.0,0.0,-17.0,0.5848077450116871,-0.1536124517286544,-0.042124341365036615
1738165891397195,0.0,0.0,-17.0,0.5847441970914716,-0.15374970281523181,-0.04206085788252011
1738165891397195,0.0,0.0,-17.0,0.5847082425907408,-0.1535843749861609,-0.042012670265150716
1738165891521197,0.0,0.0,-17.0,0.5847113162024836,-0.15361605305886175,-0.04198299109064924
1738165891521197,0.0,0.0,-17.0,0.5847328316597789,-0.15364317986163165,-0.0419165544576074
1738165891521197,0.0,0.0,-17.0,0.5847441970914716,-0.1535131197265844,-0.04189726743939236
1738165891648195,0.0,0.0,-17.0,0.5846266869447312,-0.15362424262033328,-0.04187559150933801
1738165891648195,0.0,0.0,-17.0,0.5847524889069066,-0.15344706930390845,-0.0418325375812813
1738165891648195,0.0,0.0,-17.0,0.5847698589781586,-0.1534317064585288,-0.041827233096312
1738165891774199,0.0,0.0,-17.0,0.584710386970367,-0.15362035796736026,-0.04179022862819732
1738165891774199,0.0,0.0,-17.0,0.5847252547528204,-0.1534582133248934,-0.04178109674227807
1738165891896369,0.0,0.0,-17.0,0.5846855838320235,-0.1535729107473982,-0.04174320382857162
1738165891896369,0.0,0.0,-17.0,0.5847093147801734,-0.1534719418267704,-0.04170165836093981
1738165892021194,0.0,0.0,-17.0,0.5846537048919846,-0.15360561365728226,-0.04164649723751147
1738165892021194,0.0,0.0,-17.0,0.5846930890614673,-0.15336813429447135,-0.04164593121461354
1738165892021194,0.0,0.0,-17.0,0.5846679288202427,-0.1534034943395042,-0.04161953201105716
1738165892148216,0.0,0.0,-17.0,0.5846301892439737,-0.15350406230184316,-0.04159513293784551
1738165892148216,0.0,0.0,-17.0,0.5848254016576067,-0.153291475620683,-0.0415920801730634
1738165892273785,0.0,0.0,-17.0,0.584804885655249,-0.15339478413693247,-0.04156919312396956
1738165892273785,0.0,0.0,-17.0,0.5846986643989038,-0.15336817632793015,-0.041572911219150355
1738165892273785,0.0,0.0,-17.0,0.584711602120173,-0.15333235564667874,-0.041531240768228485
1738165892396245,0.0,0.0,-17.0,0.5845817295794278,-0.1534445202319238,-0.041544189918625414
1738165892396245,0.0,0.0,-17.0,0.5847583503901037,-0.15318400135634602,-0.04149130479866576
1738165892522215,0.0,0.0,-17.0,0.5847005943281949,-0.15335088892922633,-0.04139378256363112
1738165892522215,0.0,0.0,-17.0,0.5846292600617509,-0.15327056436772216,-0.04137811976960833
1738165892522215,0.0,0.0,-17.0,0.5845843026198946,-0.15322713075016622,-0.041397695121207966
1738165892647296,0.0,0.0,-17.0,0.5845677923530342,-0.15328785168571027,-0.04141099878074762
1738165892647296,0.0,0.0,-17.0,0.5845509963791938,-0.15318565190064737,-0.041398404947994315
1738165892776256,0.0,0.0,-17.0,0.5845344150051459,-0.1531865887576663,-0.04145622519356038
1738165892776256,0.0,0.0,-17.0,0.5845060412655148,-0.15319928006238415,-0.04162709626312252
1738165892776256,0.0,0.0,-17.0,0.584531270282315,-0.15320514963667345,-0.04190536399452682
1738165892896403,0.0,0.0,-17.0,0.5850300765502944,-0.15316989153516988,-0.04214495658262688
1738165892896403,0.0,0.0,-17.0,0.5847879440793995,-0.15319733241471428,-0.04222590029947283
1738165893021634,0.0,0.0,-17.0,0.5848987468579647,-0.15341556283507482,-0.04233151194371743
1738165893021634,0.0,0.0,-17.0,0.5849243398812228,-0.15321495544277097,-0.04195049124474843
1738165893021634,0.0,0.0,-17.0,0.5848873802632688,-0.1535256032054455,-0.04189762491056125
1738165893148227,0.0,0.0,-17.0,0.5849250547763679,-0.15314828287619262,-0.041942703558833574
1738165893148227,0.0,0.0,-17.0,0.5849831768840217,-0.15357006646584986,-0.041886208510015545
1738165893271232,0.0,0.0,-17.0,0.5848814467918477,-0.1532800177695564,-0.04208307795432369
1738165893271232,0.0,0.0,-17.0,0.5848459894244318,-0.15344833471790578,-0.042160857091513855
1738165893271232,0.0,0.0,-17.0,0.5849867515024185,-0.15333778376971655,-0.04214444664723766
1738165893396227,0.0,0.0,-17.0,0.5849574398813844,-0.15325775773113032,-0.04220914421111139
1738165893396227,0.0,0.0,-17.0,0.5849597275971877,-0.15350250542949853,-0.04210978333385732
1738165893521536,0.0,0.0,-17.0,0.5848937426862363,-0.1534130750589077,-0.04219137539551934
1738165893521536,0.0,0.0,-17.0,0.5849994057195517,-0.15350606911340467,-0.04211667012389522
1738165893521536,0.0,0.0,-17.0,0.5847408374895533,-0.15352448566279578,-0.04224569491892697
1738165893648228,0.0,0.0,-17.0,0.5848477765702065,-0.1535070945183659,-0.04209844065878253
1738165893648228,0.0,0.0,-17.0,0.584830620058063,-0.15355959692785068,-0.04211734030250284
1738165893775325,0.0,0.0,-17.0,0.5849898971736084,-0.1531968037193264,-0.041867482870996835
1738165893775325,0.0,0.0,-17.0,0.5847439826485727,-0.15312280001686182,-0.04142960021793422
1738165893775325,0.0,0.0,-17.0,0.5847141039022629,-0.1534032442911273,-0.04147911690701105
1738165893895425,0.0,0.0,-17.0,0.5849117577820656,-0.15286098189870576,-0.041360636931116156
1738165893895425,0.0,0.0,-17.0,0.5847230388721184,-0.15331608309297032,-0.0414838302683891
1738165894023228,0.0,0.0,-17.0,0.5848521372147721,-0.15313259376795815,-0.04132254925620103
1738165894023228,0.0,0.0,-17.0,0.584883519929815,-0.15315467846097625,-0.04133117989832754
1738165894023228,0.0,0.0,-17.0,0.5850054826411815,-0.1532142968659335,-0.041242980167824655
1738165894146560,0.0,0.0,-17.0,0.584828475507748,-0.15302983531439415,-0.04125844023273957
1738165894146560,0.0,0.0,-17.0,0.5850400143190823,-0.15298317318213744,-0.04120823225632451
1738165894274242,0.0,0.0,-17.0,0.5849517206070403,-0.15283196547738329,-0.04127925046906944
1738165894274242,0.0,0.0,-17.0,0.5846875137446053,-0.15312301190915525,-0.04125993265965865
1738165894274242,0.0,0.0,-17.0,0.5848519227565483,-0.1528873698745956,-0.04127212983717133
1738165894395330,0.0,0.0,-17.0,0.5849036080692367,-0.1528120275230593,-0.04122622114986264
1738165894395330,0.0,0.0,-17.0,0.5847485574370177,-0.15295079862571306,-0.04127809488337018
1738165894523827,0.0,0.0,-17.0,0.5849163330787203,-0.15280849464166385,-0.0412568159934103
1738165894523827,0.0,0.0,-17.0,0.5848685076157426,-0.15298940050593623,-0.041255348369653
1738165894523827,0.0,0.0,-17.0,0.5849742403750547,-0.15277318814671392,-0.04118271873679417
1738165894653243,0.0,0.0,-17.0,0.5849379944369977,-0.15271662550024825,-0.04121179208952983
1738165894653243,0.0,0.0,-17.0,0.5848627171916237,-0.1527653308295323,-0.041273194094845214
1738165894775245,0.0,0.0,-17.0,0.5846024569743594,-0.15280666289951272,-0.041399597247609804
1738165894775245,0.0,0.0,-17.0,0.5847374064144548,-0.15288549049075645,-0.041395096256424194
1738165894775245,0.0,0.0,-17.0,0.5848462038818131,-0.15258297291374812,-0.04135380885726474
1738165894901243,0.0,0.0,-17.0,0.5846505599208988,-0.15290606732999126,-0.04128596371009652
1738165894901243,0.0,0.0,-17.0,0.5848311204535747,-0.15282624967496142,-0.041091995407548855
1738165895024243,0.0,0.0,-17.0,0.5845222649758605,-0.15305594777140344,-0.041194902745628724
1738165895024243,0.0,0.0,-17.0,0.5846602807617725,-0.15278451737445348,-0.04086612275083644
1738165895024243,0.0,0.0,-17.0,0.58456243191557,-0.15301986902231982,-0.041131585531609775
1738165895148604,0.0,0.0,-17.0,0.5846782930734069,-0.15284769478282967,-0.04098080150288564
1738165895148604,0.0,0.0,-17.0,0.5845525687603145,-0.15298639373057313,-0.04113020380986075
1738165895273468,0.0,0.0,-17.0,0.5846203256464612,-0.15294146975917994,-0.04102281413529429
1738165895273468,0.0,0.0,-17.0,0.5844806697328163,-0.152981270077523,-0.0410637955204575
1738165895273468,0.0,0.0,-17.0,0.5845419909551998,-0.1530765596613288,-0.041010868812251806
1738165895396264,0.0,0.0,-17.0,0.5846314043292812,-0.15298038887022417,-0.041147011364228867
1738165895396264,0.0,0.0,-17.0,0.5846426975218229,-0.15302673446256088,-0.04105291127879
1738165895523366,0.0,0.0,-17.0,0.5845731528095125,-0.15315137540377555,-0.04120693529434681
1738165895523366,0.0,0.0,-17.0,0.5847132461479367,-0.1531602230919421,-0.04117918491235932
1738165895523366,0.0,0.0,-17.0,0.5847485574370177,-0.15334897783324886,-0.04121270985053962
1738165895647309,0.0,0.0,-17.0,0.5848324071856515,-0.1532412885102739,-0.04128392166605957
1738165895647309,0.0,0.0,-17.0,0.5849196215817534,-0.15354302958930544,-0.041215206509452165
1738165895771430,0.0,0.0,-17.0,0.5847735045740277,-0.15370313248955605,-0.04137760721463906
1738165895771430,0.0,0.0,-17.0,0.5850395138543417,-0.15352467908922005,-0.04140054708373006
1738165895771430,0.0,0.0,-17.0,0.5847287572805592,-0.1538439238592793,-0.04163266758183194
1738165895901265,0.0,0.0,-17.0,0.5850498091624042,-0.1537915983474671,-0.0417442289077857
1738165895901265,0.0,0.0,-17.0,0.5851053621404193,-0.1538195632022112,-0.04168857872703738
1738165896022546,0.0,0.0,-17.0,0.5852711037664201,-0.15407938925771153,-0.040879065911980886
1738165896022546,0.0,0.0,-17.0,0.5865302051612273,-0.1534092430305942,-0.04012711591361391
1738165896022546,0.0,0.0,-17.0,0.5869060435769351,-0.1528538673406634,-0.04015982124082656
1738165896146932,0.0,0.0,-17.0,0.5861644773220128,-0.15382431168381636,-0.04048648406322976
1738165896146932,0.0,0.0,-17.0,0.5867058376307152,-0.1533719052482443,-0.04051455153649928
1738165896273288,0.0,0.0,-17.0,0.5865531063583594,-0.15328089984870905,-0.04059148974776156
1738165896273288,0.0,0.0,-17.0,0.5866691921627971,-0.15394383342919987,-0.04048813509854795
1738165896273288,0.0,0.0,-17.0,0.587039767651805,-0.15309907652838067,-0.04037757390688027
1738165896397326,0.0,0.0,-17.0,0.5871142230417483,-0.1537635745569221,-0.039830194607392184
1738165896397326,0.0,0.0,-17.0,0.5875305969016784,-0.1531932718799485,-0.039741841914015294
1738165896522624,0.0,0.0,-17.0,0.5869237964096439,-0.15360025338806682,-0.04014499776191409
1738165896522624,0.0,0.0,-17.0,0.587233788933868,-0.1536224919497145,-0.040549950747604945
1738165896522624,0.0,0.0,-17.0,0.5871754367261443,-0.15344964463476746,-0.0412953610982147
1738165896647289,0.0,0.0,-17.0,0.5875128368981426,-0.15359050063453514,-0.04113796757436211
1738165896647289,0.0,0.0,-17.0,0.5872237650805424,-0.1534720107271989,-0.04134815142057418
1738165896772287,0.0,0.0,-17.0,0.5875863847307083,-0.15355728678999997,-0.04125074313562936
1738165896772287,0.0,0.0,-17.0,0.5874148025939033,-0.15345581528456026,-0.041500608503712504
1738165896772287,0.0,0.0,-17.0,0.5874568369720425,-0.15357436372463415,-0.04155810506435091
1738165896899291,0.0,0.0,-17.0,0.5870944633671873,-0.15356010564132197,-0.042100327281555806
1738165896899291,0.0,0.0,-17.0,0.5868688921577587,-0.15385787196433542,-0.042571651441511954
1738165897021305,0.0,0.0,-17.0,0.5866973919163675,-0.15394538819284595,-0.042548774960580626
1738165897021305,0.0,0.0,-17.0,0.5862284428714516,-0.15422501688497933,-0.042493865070917694
1738165897021305,0.0,0.0,-17.0,0.5864741702641747,-0.15403919594662485,-0.04161142179772834
1738165897147610,0.0,0.0,-17.0,0.5857485528588798,-0.15484586910243556,-0.04206568343916138
1738165897147610,0.0,0.0,-17.0,0.5864838313044682,-0.15396165060107583,-0.04149721888650796
1738165897271305,0.0,0.0,-17.0,0.5861158968016839,-0.15428930481677994,-0.04177115718513889
1738165897271305,0.0,0.0,-17.0,0.5862834668659334,-0.1541584502896613,-0.04158449786073934
1738165897271305,0.0,0.0,-17.0,0.586244899772171,-0.153808696309748,-0.04171894393127171
1738165897398306,0.0,0.0,-17.0,0.5862074784714717,-0.15414357090190361,-0.0416527766106501
1738165897398306,0.0,0.0,-17.0,0.586089568102269,-0.15364786416604959,-0.041733804466993915
1738165897521305,0.0,0.0,-17.0,0.5858333881225531,-0.15408126181499432,-0.04188980996359073
1738165897521305,0.0,0.0,-17.0,0.5858249473006126,-0.15376829009896725,-0.042235493466070945
1738165897521305,0.0,0.0,-17.0,0.586173349338838,-0.15378382916977068,-0.04246314527589323
1738165897647684,0.0,0.0,-17.0,0.5859127198525491,-0.15416454285261866,-0.04269560919173626
1738165897647684,0.0,0.0,-17.0,0.5867175042463255,-0.15358821100214784,-0.04127670745082836
1738165897770405,0.0,0.0,-17.0,0.5864540611866013,-0.15380023785664143,-0.041461185001581434
1738165897770405,0.0,0.0,-17.0,0.5864956393268291,-0.15285421418916043,-0.04010841489172045
1738165897770405,0.0,0.0,-17.0,0.5859998536530014,-0.1540371522957352,-0.04018140526206923
1738165897900305,0.0,0.0,-17.0,0.5876166786051542,-0.15270276400620827,-0.03906044660688107
1738165897900305,0.0,0.0,-17.0,0.5873459890559518,-0.15202502085619748,-0.03961032912395049
1738165898021536,0.0,0.0,-17.0,0.5870931747017832,-0.15327695185565834,-0.03926992316730933
1738165898021536,0.0,0.0,-17.0,0.5872711641765226,-0.15230446185460159,-0.039554375027811714
