timestamp,latitude,longitude,altitude,pitch,roll,yaw
1709481737394897,40.34928072826366,111.90494077657883,1371.8508748915046,0.4395507652568146,-0.34895556755607193,1.2648558252706468
1709481737744834,40.34928854781117,111.90495485404462,1372.7699100784957,0.44789547405367863,-0.34763748469201455,0.7219645311645847
1709481738067689,40.3493035838516,111.90496784865827,1373.6270805243403,0.45552969741509414,-0.34510298004027246,0.4870577095963928
1709481738417886,40.349328277220486,111.90498192619359,1374.5651336694136,0.46367313833040213,-0.3409406208780576,0.3552435906697008
1709481738741605,40.349358740139344,111.90499492087999,1375.4395981719717,0.4710264586872741,-0.3358057375969458,0.2836285974762509
1709481739065328,40.34939645198111,111.90500791560711,1376.3220911938697,0.4781790774602769,-0.32944896373230353,0.23627313592208524
1709481739416431,40.34944532690063,111.90502199327815,1377.2869070479646,0.48565371397897966,-0.3212105218828993,0.2005571840279427
1709481739739468,40.349497669926244,111.90503498810105,1378.18530767411,0.4922582605976992,-0.31238748928612153,0.17648224963103684
1709481740063075,40.34955675634236,111.90504798297464,1379.0908605456352,0.49854092172835457,-0.30242777768468204,0.15802859644728373
1709481740412469,40.349628126416306,111.90506206081473,1380.0795180425048,0.5049428269152824,-0.29039750891211186,0.14244150640979877
1709481740734696,40.34970054349297,111.90507505580234,1380.9987409571186,0.5104435881104794,-0.27819075323919823,0.1309888011812432
1709481741086281,40.34978576322033,111.90508913377123,1382.0012011565268,0.5159234971990304,-0.26382595631390554,0.12093710995318173
1709481741409988,40.349870368425464,111.9051021288819,1382.9321587244049,0.5205095201154323,-0.24956474132325104,0.11332852259224262
1709481741742205,40.34996036087144,111.90511512405396,1383.8679748913273,0.5246161089519307,-0.23439543938451088,0.10698048050755068
1709481742065584,40.350055413101046,111.9051281192885,1384.8081090059131,0.5282208193411984,-0.21837324677673098,0.10165129049319531
1709481742416396,40.35016369461054,111.90514219753047,1385.83080427628,0.531536914307461,-0.20012109591126573,0.09681993213445325
1709481742739506,40.35026815733304,111.90515519289681,1386.7780941892415,0.5340365079713028,-0.1825126429786591,0.0930851474378016
1709481743063588,40.3503765598561,111.90516818832646,1387.7278946777806,0.5359832516778629,-0.1642400844193091,0.08994040543859402
1709481743414201,40.35049798407519,111.90518226677943,1388.7589586330578,0.5374563142437493,-0.14377255561074453,0.0871078815005973
1709481743738849,40.350613312708674,111.90519526233892,1389.7119847536087,0.5382212866634686,-0.12433250640555538,0.08495788964516976
1709481744063437,40.350731325223904,111.90520825795889,1390.6655781595036,0.5384110108815281,-0.10444005063968372,0.08320531167610096
1709481744415329,40.350861702555754,111.90522233661349,1391.6985328905284,0.5379662946768844,-0.08246334697174608,0.08171319366031503
1709481744739435,40.35098391782674,111.90523533235357,1392.6512455670163,0.536957900081984,-0.0618624528496902,0.08068185886077019
1709481745063548,40.351107468458885,111.90524832814764,1393.602550065145,0.5353810028245799,-0.041036460880432266,0.07996227747718528
1709481745415747,40.35124230039818,111.90526240698209,1394.6308104684576,0.5330410197584992,-0.018308857377214435,0.0795191284911833
1709481745740028,40.3513671854252,111.9052754028789,1395.5771711906418,0.53031036465974,0.0027420769967882496,0.07941257012914867
1709481746063826,40.35149201122,111.9052883988196,1396.520221836865,0.5270469321038743,0.023783033822206815,0.07959431221273182
1709481746414743,40.35162664556791,111.90530247780022,1397.5374480746686,0.5229308936923728,0.04647735340164916,0.0801204991407864
1709481746742788,40.35174989135936,111.90531547381914,1398.4717529891059,0.5186176400551331,0.06725199536138919,0.08091973343612219
1709481747067168,40.351871685370845,111.90532846986859,1399.4010215913877,0.5138353356902272,0.0877819286379371,0.08203521535537965
1709481747418702,40.35200147675253,111.90534254895088,1400.4014594182372,0.5081558367362904,0.10965992894918263,0.08362563916139217
1709481747740615,40.35211883088201,111.90535554504774,1401.3186458451673,0.5024840590195355,0.12944147890676166,0.08547781485005243
1709481748064324,40.35223339077711,111.905368541159,1402.2293383674696,0.49643279572804366,0.14875203237295767,0.08773853631796955
1709481748417551,40.35235386092312,111.90538262028916,1403.2081290725619,0.4894885269567203,0.1690588440113957,0.0907073038722656
1709481748743481,40.35246127425261,111.90539561641184,1404.1040485585108,0.48275842091656296,0.18716476761146536,0.09399724137837343
1709481749040401,40.3525561964819,111.90540752952106,1404.9186351681128,0.476352851929848,0.20316515992291942,0.09755011319024182
